business_id,name,yname,yid,latitude,longitude,ylat,ylong,cneighborhood,yprice_category,price_min,ccategory,insp_count,score,ycount,yrating
19,NRGIZE LIFESTYLE CAFE,Nrgize,nrgize-san-francisco,37.786848,-122.421547,37.78694534,-122.4209824,nobhill,1,$0.00 ,coffeetea,4,94.5,19,4
24,OMNI S.F. HOTEL,Omni San Francisco,omni-san-francisco-san-francisco,37.792888,-122.403135,37.792877,-122.4028272,financialdistrict,3,$31.00 ,venue,4,97,471,4.5
31,NORMAN'S ICE CREAM AND FREEZES,Norman's Ice Cream & Freezes,normans-ice-cream-and-freezes-san-francisco,37.807155,-122.419004,37.80727768,-122.4194717,russianhill,1,$0.00 ,desserts,3,94,211,4.5
45,CHARLIE'S DELI CAFE,Charlie's Deli Cafe,charlies-deli-cafe-san-francisco,37.747114,-122.413641,37.74716283,-122.4138951,bernalheights,1,$0.00 ,fastfood,4,87.5,76,4
48,ART'S CAFE,Art's Cafe,arts-cafe-san-francisco,37.764013,-122.465749,37.763926,-122.4657578,sunset,1,$0.00 ,american,3,92,963,4
50,SUSHI ZONE,Sushi Zone,sushi-zone-san-francisco,37.771437,-122.423892,37.77123,-122.42374,mission,2,$11.00 ,japanese,3,93.33,1001,4
56,CAFE X + O,Cafe XO,cafe-xo-san-francisco,37.742325,-122.426476,37.7422408,-122.4264405,noevalley,1,$0.00 ,coffeetea,5,94,195,3.5
58,OASIS GRILL,Oasis Grill,oasis-grill-san-francisco,37.794483,-122.396584,37.79444642,-122.3967365,financialdistrict,1,$0.00 ,european,3,77,1046,4
61,CHOWDERS,Chowders,chowders-san-francisco,37.80824,-122.410189,37.80875,-122.410097,northbeach,1,$0.00 ,seafood,4,93,545,3.5
66,STARBUCKS COFFEE,Starbucks,starbucks-san-francisco-236,37.763578,-122.477461,37.76376343,-122.4774857,sunset,1,$0.00 ,coffeetea,5,97,123,3
67,REVOLUTION CAFE,The Revolution Cafe,the-revolution-cafe-san-francisco,37.755419,-122.419542,37.75542721,-122.4196827,mission,1,$0.00 ,coffeetea,3,90.33,486,4
73,DINO'S UNCLE VITO,Dino & Santino's,dino-and-santinos-san-francisco,37.788932,-122.433895,37.7890055,-122.4340049,pacificheights,2,$11.00 ,fastfood,3,89.67,569,3.5
76,OMNI S.F. HOTEL,Omni San Francisco,omni-san-francisco-san-francisco,37.792888,-122.403135,37.792877,-122.4028272,financialdistrict,3,$31.00 ,venue,4,98.5,471,4.5
77,OMNI S.F. HOTEL,Omni San Francisco,omni-san-francisco-san-francisco,37.792888,-122.403135,37.792877,-122.4028272,financialdistrict,3,$31.00 ,venue,4,95.25,471,4.5
80,LAW SCHOOL CAFE,Cafe Kendrick,cafe-kendrick-san-francisco-2,37.774941,-122.452797,37.77496777,-122.4526497,haight,3,$31.00 ,bakeries,3,94.67,3,2.5
88,J.B.'S PLACE,JB's Place,jbs-place-san-francisco,37.765003,-122.398084,37.7649017,-122.3983826,potrerohill,1,$0.00 ,fastfood,3,80.33,134,4
95,VEGA,Vega,vega-san-francisco-2,37.739207,-122.417447,37.73934,-122.41742,bernalheights,2,$11.00 ,italian,4,86.25,417,4
98,XOX TRUFFLES,XOX Truffles,xox-truffles-san-francisco,37.801665,-122.412104,37.80175,-122.41206,russianhill,1,$0.00 ,desserts,4,96,517,4.5
99,J & M A-1 CAFE RESTAURANT LLC,A-1 Restaurant,a-1-restaurant-san-francisco,37.794293,-122.405967,37.794293,-122.405967,chinatown,1,$0.00 ,chinese,1,76,58,2.5
101,CABLE CAR CORNER,Cable Car Corner,cable-car-corner-san-francisco,37.794615,-122.409705,37.79458618,-122.4099197,nobhill,1,$0.00 ,fastfood,3,98,4,3
102,AKIKO'S SUSHI BAR,Akiko's Sushi Bar,akikos-sushi-bar-san-francisco,37.788484,-122.410045,37.78873825,-122.409935,downtown,2,$11.00 ,japanese,3,95,362,3.5
108,RUE LEPIC,Rue Lepic,rue-lepic-san-francisco,37.790868,-122.410854,37.7909867,-122.4108429,nobhill,3,$31.00 ,french,2,87,236,4
121,AKIKOS SUSHI,Akiko's Restaurant,akikos-restaurant-san-francisco,37.790643,-122.404676,37.79059694,-122.4045478,downtown,2,$11.00 ,japanese,3,87.67,1411,4
125,CENTERFOLDS,Centerfolds,centerfolds-san-francisco,37.798233,-122.403637,37.79803,-122.40361,northbeach,2,$11.00 ,venue,2,96,132,3
126,BROADWAY DIM SUM,Broadway Dim Sum Cafe,broadway-dim-sum-cafe-san-francisco-2,37.797708,-122.408413,37.79774778,-122.4082565,russianhill,1,$0.00 ,coffeetea,3,75,13,2.5
132,SILVER STAR CAFE AND DELI,Silver Star Deli,silver-star-deli-san-francisco-2,37.797668,-122.401125,37.79772186,-122.4011536,financialdistrict,1,$0.00 ,chinese,3,85,45,3.5
140,CAFE MADELEINE,Cafe Madeleine,cafe-madeleine-san-francisco,37.793268,-122.400323,37.79344559,-122.4003448,financialdistrict,2,$11.00 ,coffeetea,3,87,423,4
141,AFC SUSHI @ MOLLIE STONE'S 2,Mollie Stone's,mollie-stones-san-francisco-3,37.788773,-122.434697,37.78845978,-122.4347382,pacificheights,3,$31.00 ,grocery,4,99.5,310,3
146,DEJA VU PIZZA & PASTA,Deja Vu Pizza and Pasta,deja-vu-pizza-and-pasta-san-francisco,37.764713,-122.424709,37.7646,-122.42471,mission,1,$0.00 ,fastfood,4,91.75,358,3.5
151,BUS STOP PIZZA #1,Bus Stop Pizza,bus-stop-pizza-san-francisco,37.771487,-122.437047,37.77152,-122.43688,haight,1,$0.00 ,fastfood,3,91.67,109,3.5
164,SAN FRANCISCO SOUP COMPANY,San Francisco Soup Company,san-francisco-soup-company-san-francisco-5,37.789064,-122.402861,37.78926516,-122.4029585,financialdistrict,1,$0.00 ,fastfood,3,98.67,138,3.5
178,C & Y CAFE,Cafe Venue,cafe-venue-san-francisco-9,37.793128,-122.401395,37.79266633,-122.4018547,financialdistrict,1,$0.00 ,coffeetea,3,84,164,4
179,SECRET GARDEN TEA HOUSE,Secret Garden Tea House,secret-garden-tea-house-san-francisco,37.765933,-122.465809,37.76583465,-122.4658331,sunset,2,$11.00 ,coffeetea,2,92,336,3.5
180,NENAS RESTAURANT,Nena's Restaurant,nenas-restaurant-san-francisco,37.74146,-122.422484,37.74143144,-122.4225144,bernalheights,1,$0.00 ,mexican,5,93.6,37,4
184,RADIO HAVANA,Radio Habana Social Club,radio-habana-social-club-san-francisco-3,37.755124,-122.420916,37.75507987,-122.4208897,mission,2,$11.00 ,bars,1,96,184,4
187,TAZA WRAPS & JUICE,Taza Smoothies & Wraps,taza-smoothies-and-wraps-san-francisco,37.723054,-122.483612,37.7232495,-122.4830109,sunset,1,$0.00 ,coffeetea,4,97.25,53,3.5
190,COURTYARD BY MARRIOTT,Courtyard San Francisco Downtown,courtyard-san-francisco-downtown-san-francisco,37.785614,-122.396693,37.78596,-122.39682,financialdistrict,2,$11.00 ,venue,2,95,226,3.5
192,ARLEQUIN,Arlequin Cafe & Food To Go,arlequin-cafe-and-food-to-go-san-francisco,37.777014,-122.422345,37.77698698,-122.4226907,westernaddition,2,$11.00 ,coffeetea,2,91,698,4
198,SUBWAY,Subway,subway-san-francisco-54,37.741829,-122.388098,37.74158478,-122.3876495,bayviewhunterspoint,1,$0.00 ,fastfood,4,93,16,3
200,JIM'S SMOKE SHOP,Jims's Sandwich & Smoke Shop,jimss-sandwich-and-smoke-shop-san-francisco,37.760568,-122.387772,37.76067,-122.38777,potrerohill,1,$0.00 ,fastfood,3,91,7,3.5
208,CONSTANS GROCERY,Constanso's,constansos-san-francisco,37.739961,-122.389003,37.74014466,-122.3889633,bayviewhunterspoint,1,$0.00 ,fastfood,3,92.33,24,4.5
216,SORABOL,Sorabol Korean Restaurant,sorabol-korean-restaurant-san-francisco-2,37.792577,-122.393992,37.79268582,-122.3930923,financialdistrict,1,$0.00 ,korean,3,100,140,3
217,PROGRESSIVE GROUNDS,Progressive Grounds,progressive-grounds-san-francisco,37.739143,-122.417653,37.73905,-122.41765,bernalheights,1,$0.00 ,coffeetea,4,95.5,282,4
221,NOODLE EXPRESS,Kyoto Noodle Express,kyoto-noodle-express-san-francisco,37.787076,-122.421822,37.78715134,-122.4220886,pacificheights,1,$0.00 ,japanese,2,95.5,16,3
226,GRUMPY'S AMERICAN PUB,Grumpy's American Pub,grumpys-american-pub-san-francisco,37.799594,-122.400586,37.79948,-122.40057,northbeach,2,$11.00 ,bars,2,85.5,303,4
231,CAFFE PUCCINI,Caffe Puccini,caffe-puccini-san-francisco,37.799087,-122.408488,37.79894,-122.4086,russianhill,2,$11.00 ,fastfood,3,90.67,361,4
234,NEW MOON RESTAURANT,New Moon,new-moon-san-francisco,37.797303,-122.408574,37.79722322,-122.4086437,chinatown,1,$0.00 ,chinese,2,80.5,36,3.5
236,GELATO CLASSICO ITALIAN ICE,Gelato Classico Italian,gelato-classico-italian-san-francisco,37.800543,-122.408784,37.8006354,-122.4086501,northbeach,1,$0.00 ,desserts,2,91,190,4
239,JUST WONTON,Just Won Ton,just-won-ton-san-francisco,37.739063,-122.480409,37.73887,-122.4804,sunset,1,$0.00 ,chinese,3,83.67,228,3.5
240,MIKI RESTAURANT,Miki Restaurant,miki-restaurant-san-francisco,37.775663,-122.497949,37.77547,-122.49795,richmond,2,$11.00 ,japanese,3,75.33,387,4
247,TOY BOAT DESSERT CAFE,Toy Boat Dessert Cafe,toy-boat-dessert-cafe-san-francisco-3,37.782953,-122.46351,37.78294064,-122.4634818,richmond,1,$0.00 ,desserts,3,86.67,587,4
251,BEANERY INC.,The Beanery,the-beanery-san-francisco-2,37.764148,-122.464391,37.76425316,-122.464595,sunset,1,$0.00 ,coffeetea,3,94.67,140,4
253,ANN'S DONUT COFFEE SHOP,Ann's Doughnut Sandwich Shop,anns-doughnut-sandwich-shop-san-francisco,37.725949,-122.433906,37.72598259,-122.4339051,excelsior,1,$0.00 ,fastfood,4,97.5,34,3.5
258,VIKINGS GIANT SUBMARINE,Viking's Giant Submarines,vikings-giant-submarines-san-francisco,37.72404,-122.456539,37.724133,-122.4566716,twinpeaks,1,$0.00 ,fastfood,5,94,133,3.5
260,MONTEREY PIZZA,Monterey Pizza & Asian Zap,monterey-pizza-and-asian-zap-san-francisco-2,37.731523,-122.448711,37.73126,-122.44871,mission,2,$11.00 ,fastfood,5,87.4,43,4
267,ASA SUSHI,Asa Sushi,asa-sushi-san-francisco-2,37.800023,-122.442266,37.79992,-122.44225,marina,2,$11.00 ,japanese,3,82,135,3.5
268,LOS HERMANOS,Los Hermanos Mexican Food,los-hermanos-mexican-food-san-francisco,37.800767,-122.436924,37.80092,-122.43695,marina,1,$0.00 ,mexican,4,94.75,252,3.5
272,ON THE BRIDGE,On the Bridge,on-the-bridge-san-francisco,37.785227,-122.431472,37.78518552,-122.4313409,pacificheights,2,$11.00 ,japanese,4,82.5,892,3.5
273,HAI SUN RESTAURANT,Hai Sun,hai-sun-san-francisco,37.800133,-122.431064,37.80007,-122.43134,marina,1,$0.00 ,chinese,3,78.67,122,3
275,BEN & JERRY'S,Ben & Jerry's,ben-and-jerrys-san-francisco-4,37.786548,-122.407313,37.78670356,-122.407313,downtown,1,$0.00 ,desserts,3,95.33,49,3.5
276,CORSAGNA,Corsagna Deli,corsagna-deli-san-francisco,37.79826,-122.426748,37.79825203,-122.4266966,marina,1,$0.00 ,fastfood,3,99.33,31,4
279,INGA DONUTS,Inga Donut,inga-donut-san-francisco,37.790347,-122.417227,37.79046424,-122.4172291,nobhill,1,$0.00 ,fastfood,4,97.5,32,2.5
281,PARMA RESTAURANT,Ristorante Parma,ristorante-parma-san-francisco,37.799807,-122.437649,37.7998892,-122.4375621,marina,2,$11.00 ,italian,3,95,330,4
283,HAI KY MI GIA,Hai Ky Mi Gia,hai-ky-mi-gia-san-francisco,37.784193,-122.417967,37.7840538,-122.4179535,downtown,1,$0.00 ,chinese,1,73,692,4
286,PUNJAB KABAB HOUSE,Punjab Kabab House,punjab-kabab-house-san-francisco,37.784303,-122.409647,37.7843487,-122.4093534,downtown,1,$0.00 ,indian,2,81,256,3.5
290,BISTRO AIX,Bistro Aix,bistro-aix-san-francisco,37.800187,-122.437756,37.80024,-122.43752,marina,2,$11.00 ,french,4,88,554,4
298,BAMBOO RESTAURANT,Bamboo Restaurant,bamboo-restaurant-san-francisco-2,37.790134,-122.420634,37.79003777,-122.4206342,nobhill,2,$11.00 ,chinese,4,89.25,352,3
299,YUKOL PLACE THAI CUISINE,Yukol Place Thai Cuisine,yukol-place-thai-cuisine-san-francisco,37.799287,-122.440624,37.79953384,-122.4406815,marina,2,$11.00 ,thai,3,94.67,329,4
300,SUBWAY,Subway,subway-san-francisco-46,37.794134,-122.423234,37.794078,-122.423538,pacificheights,1,$0.00 ,fastfood,4,89,59,3.5
302,MOULIN ROUGE,Moulin Rouge Restaurant,moulin-rouge-restaurant-san-francisco,37.786084,-122.417889,37.78599867,-122.4178382,downtown,1,$0.00 ,american,2,81.5,485,4
305,PACIFIC CATCH,Pacific Catch,pacific-catch-san-francisco,37.800763,-122.436536,37.80057,-122.43652,marina,2,$11.00 ,seafood,4,89,1388,4
315,THE POSH BAGEL,The Posh Bagel,the-posh-bagel-san-francisco-3,37.760954,-122.434935,37.76109,-122.4347,castro,1,$0.00 ,bakeries,3,90.33,116,3
318,FIRST CUP,First Cup,first-cup-san-francisco,37.802454,-122.424854,37.80245706,-122.4248754,marina,1,$0.00 ,coffeetea,3,94,41,4
320,NAPOLI PIZZA RESTAURANT,Napoli Pizza,napoli-pizza-san-francisco,37.786545,-122.419894,37.78651428,-122.4200821,nobhill,1,$0.00 ,fastfood,3,84.67,238,3.5
323,WAYO,Wayo Sushi,wayo-sushi-san-francisco,37.788609,-122.42213,37.788708,-122.422174,pacificheights,2,$11.00 ,japanese,2,100,620,4
325,MIFUNE RESTAURANT,Mifune Restaurant,mifune-restaurant-san-francisco,37.785457,-122.430317,37.785345,-122.430272,pacificheights,2,$11.00 ,japanese,4,84,986,3
326,TEN ICHI RESTAURANT,Ten-Ichi,ten-ichi-san-francisco,37.790333,-122.434144,37.79027,-122.43444,pacificheights,2,$11.00 ,japanese,2,83.5,281,3.5
328,MIYAKO,Miyako Old Fashioned Ice Cream,miyako-old-fashioned-ice-cream-san-francisco,37.783017,-122.432584,37.78298356,-122.4325901,pacificheights,1,$0.00 ,desserts,3,92,234,4.5
335,POLKERS,Polkers Gourmet Burgers,polkers-gourmet-burgers-san-francisco,37.797296,-122.421967,37.7972056,-122.421847,russianhill,2,$11.00 ,fastfood,3,78,809,3.5
337,GORDO TAQUERIA,Gordo Taqueria,gordo-taqueria-san-francisco,37.758941,-122.48591,37.7652,-122.46672,sunset,1,$0.00 ,mexican,2,92,578,3.5
379,GIANT SCOOP,Giant Scoop Cafe,giant-scoop-cafe-san-francisco,37.727468,-122.403582,37.72741891,-122.4035794,excelsior,1,$0.00 ,desserts,4,85.75,15,4
383,KING LING,King Ling,king-ling-san-francisco,37.786543,-122.414536,37.7863998,-122.4145126,downtown,1,$0.00 ,chinese,4,95,104,3.5
384,RINCONSITO SALVADORENO,Rinconcito Salvadoreno,rinconcito-salvadoreno-san-francisco,37.73571,-122.424528,37.73565,-122.42431,bernalheights,2,$11.00 ,latinamerican,1,88,25,3.5
385,REINA RESTAURANT,Reinas Restaurant,reinas-restaurant-san-francisco,37.712927,-122.444358,37.71281,-122.44416,excelsior,1,$0.00 ,latinamerican,3,87.67,92,3.5
386,ADELITA'S CAKES,Adelita's Cakes Con Sabores Nicaraguense,adelitas-cakes-con-sabores-nicaraguense-san-francisco,37.736304,-122.424432,37.73627472,-122.4247055,mission,1,$0.00 ,bakeries,5,85.6,12,3
389,CAFE ELENA,Cafe Elena,cafe-elena-san-francisco,37.794347,-122.394932,37.79387,-122.39486,financialdistrict,1,$0.00 ,european,2,100,62,3.5
393,SUPER STAR RESTAURANT,Superstar Restaurant,superstar-restaurant-san-francisco,37.719692,-122.438575,37.71952,-122.43834,excelsior,1,$0.00 ,asian,4,90.5,331,4
394,SF MARRIOTT HOTEL,San Francisco Marriott Marquis,san-francisco-marriott-marquis-san-francisco-2,37.784964,-122.404752,37.78489771,-122.4038507,downtown,3,$31.00 ,venue,3,98.67,663,3.5
395,SF MARRIOTT HOTEL,San Francisco Marriott Marquis,san-francisco-marriott-marquis-san-francisco-2,37.784964,-122.404752,37.78489771,-122.4038507,downtown,3,$31.00 ,venue,3,98,663,3.5
397,SF MARRIOTT HOTEL,San Francisco Marriott Marquis,san-francisco-marriott-marquis-san-francisco-2,37.784964,-122.404752,37.78489771,-122.4038507,downtown,3,$31.00 ,venue,2,98,663,3.5
403,HAAGEN-DAZS,Haagen Dazs Shop,haagen-dazs-shop-san-francisco,37.784317,-122.407563,37.78474906,-122.4077103,downtown,2,$11.00 ,desserts,4,85.25,50,3.5
413,HOUSE OF HUNAN,House Of Hunan,house-of-hunan-san-francisco-2,37.757923,-122.393914,37.7827688,-122.3890322,soma,1,$0.00 ,chinese,2,85.5,167,3
415,CAFE MADELEINE,Cafe Madeleine,cafe-madeleine-san-francisco-2,37.786698,-122.405473,37.78669104,-122.4055816,downtown,1,$0.00 ,coffeetea,3,85.67,403,4
420,BUSTER'S,Buster's Cheesesteak,busters-cheesesteak-san-francisco,37.798444,-122.407444,37.79856,-122.40734,russianhill,1,$0.00 ,american,3,78.67,616,4
421,CAFFE ROMA COFFEE ROASTING CO,Caffe Roma Coffee Roasting,caffe-roma-coffee-roasting-san-francisco,37.799845,-122.409434,37.77445984,-122.404129,russianhill,2,$11.00 ,coffeetea,2,84,95,3.5
422,MICHELANGELO CAFFE,Michelangelo Ristorante & Caffe,michelangelo-ristorante-and-caffe-san-francisco-2,37.800166,-122.410006,37.8,-122.41012,russianhill,2,$11.00 ,italian,3,84.33,445,3
423,ORALE ORALE INC,Orale Orale,orale-orale-san-francisco,37.794501,-122.39716,37.7944345,-122.3969439,financialdistrict,1,$0.00 ,mexican,3,83.33,501,3.5
424,CHATZ,Chat's Roasting Company,chats-roasting-company-san-francisco,37.762334,-122.398416,37.76235,-122.39822,potrerohill,1,$0.00 ,bakeries,3,89.67,100,4
428,CAFFE AMBROSIA,Caffe Ambrosia,caffe-ambrosia-san-francisco,37.790109,-122.402597,37.7901873,-122.4026299,financialdistrict,1,$0.00 ,desserts,4,99,270,4.5
429,CALZONE'S,Calzone's,calzones-san-francisco,37.798965,-122.408204,37.799032,-122.4081743,russianhill,2,$11.00 ,italian,3,87,1187,3.5
430,ROSE PISTOLA,Rose Pistola,rose-pistola-san-francisco,37.799915,-122.409544,37.80006,-122.40944,russianhill,3,$31.00 ,italian,3,86.33,772,3.5
431,BOHEMIAN CIGAR STORE,Mario's Bohemian Cigar Store Cafe,marios-bohemian-cigar-store-cafe-san-francisco,37.800135,-122.409854,37.80021,-122.40979,russianhill,2,$11.00 ,italian,3,93.67,492,4
435,VIENI-VIENI,Vieni Vieni Lucky Spot,vieni-vieni-lucky-spot-san-francisco,37.798914,-122.408885,37.79887,-122.4091,russianhill,1,$0.00 ,bars,3,94,26,4
436,NORTH BEACH RESTAURANT,North Beach Restaurant,north-beach-restaurant-san-francisco,37.799646,-122.408939,37.79977302,-122.408904,northbeach,3,$31.00 ,italian,3,82.33,599,3.5
438,HAWAII WEST,Hawaii West,hawaii-west-san-francisco,37.798494,-122.409337,37.79838,-122.40932,russianhill,1,$0.00 ,bars,3,89,62,3.5
442,MY CANH RESTAURANT,My Canh,my-canh-san-francisco,37.797828,-122.407474,37.79784098,-122.4075061,russianhill,1,$0.00 ,vietnamese,3,87,391,3.5
443,THE STINKING ROSE,The Stinking Rose - A Garlic Restaurant,the-stinking-rose-a-garlic-restaurant-san-francisco,37.798306,-122.407327,37.7982486,-122.4073904,russianhill,2,$11.00 ,italian,3,90.33,3064,3.5
447,L'OSTERIA DEL FORNO,L'Osteria Del Forno,l-osteria-del-forno-san-francisco,37.799837,-122.409517,37.79972,-122.40959,russianhill,2,$11.00 ,italian,3,88.67,519,3.5
448,YUET LEE RESTAURANT,Yuet Lee,yuet-lee-san-francisco,37.797817,-122.408597,37.7976466,-122.4084366,russianhill,2,$11.00 ,chinese,3,84.33,578,3.5
462,GARDEN OF EDEN,Garden of Eden,garden-of-eden-san-francisco,37.797933,-122.406018,37.79772,-122.40599,northbeach,3,$31.00 ,venue,2,96,55,2.5
463,SAM'S PIZZA,Sam's,sams-san-francisco,37.797828,-122.407444,37.7979,-122.40744,russianhill,1,$0.00 ,american,4,88.25,450,4
468,TAQUERIA ZORRO,Taqueria Zorro,taqueria-zorro-san-francisco,37.798065,-122.406855,37.79817,-122.40679,russianhill,1,$0.00 ,mexican,3,80,333,3
470,FRANCHINO,Franchino,franchino-san-francisco,37.798427,-122.407507,37.79833,-122.40757,russianhill,2,$11.00 ,italian,2,94,925,4
473,CAFFE GRECO,Caffe Greco,caffe-greco-san-francisco,37.79886,-122.408204,37.798918,-122.4084483,russianhill,1,$0.00 ,coffeetea,3,87,828,4
475,MARA'S,Mara's Italian Pastry,maras-italian-pastry-san-francisco,37.799501,-122.409084,37.79972995,-122.4093374,russianhill,1,$0.00 ,bakeries,3,92,451,3.5
477,IL POLLAIO,Il Pollaio,il-pollaio-san-francisco,37.800036,-122.409817,37.800039,-122.4098505,russianhill,2,$11.00 ,italian,4,86.5,318,4.5
479,RISTORANTE IDEALE,Ideale,ideale-san-francisco,37.799003,-122.407274,37.799001,-122.407311,northbeach,2,$11.00 ,italian,2,84.5,610,4
480,MO'S GRILL,Mo's Grill,mos-grill-san-francisco,37.799058,-122.407217,37.79907614,-122.4071956,northbeach,2,$11.00 ,fastfood,2,79,697,4
483,MAYKADEH RESTAURANT,Maykadeh,maykadeh-san-francisco,37.799758,-122.407113,37.80002,-122.40714,northbeach,2,$11.00 ,middleeastern,2,85.5,620,4
484,COLUMBUS CAFE,Columbus Cafe,columbus-cafe-san-francisco,37.799598,-122.408394,37.79976,-122.40841,northbeach,1,$0.00 ,bars,2,88.5,330,4
486,TOMMASO,Tommaso's Ristorante Italiano,tommasos-ristorante-italiano-san-francisco,37.797398,-122.405322,37.79777908,-122.4052048,financialdistrict,2,$11.00 ,italian,2,91.5,1391,4
488,THE HOUSE,The House,the-house-san-francisco,37.798519,-122.407071,37.7986203,-122.4070251,northbeach,3,$31.00 ,asian,2,85,3847,4.5
489,DOL-HO RESTAURANT,Dol Ho,dol-ho-san-francisco,37.796718,-122.408714,37.7967339,-122.4086863,chinatown,1,$0.00 ,chinese,6,76.17,230,4
494,SAN FRANCISCO ATHLETIC CLUB,San Francisco Italian Athletic Club,san-francisco-italian-athletic-club-san-francisco,37.800897,-122.409189,37.800909,-122.409172,northbeach,1,$0.00 ,venue,2,70.5,29,4.5
496,CAFFE TRIESTE,Caffe Trieste,caffe-trieste-san-francisco-5,37.798744,-122.407408,37.79867436,-122.4073098,northbeach,1,$0.00 ,coffeetea,3,88.33,546,4
500,ROXANNE CAFE,Roxanne's Cafe,roxannes-cafe-san-francisco-2,37.790003,-122.408688,37.7900344,-122.4085888,downtown,2,$11.00 ,coffeetea,4,83,317,3
502,COURTYARD BY MARRIOTT,Courtyard San Francisco Downtown,courtyard-san-francisco-downtown-san-francisco,37.785614,-122.396693,37.78596,-122.39682,financialdistrict,2,$11.00 ,venue,2,96,226,3.5
505,QUICKLY,Quickly,quickly-san-francisco-13,37.714458,-122.44277,37.71431,-122.44264,excelsior,1,$0.00 ,coffeetea,5,91.6,100,2.5
507,VIKING'S GIANT SUB,Viking's Giant Submarines,vikings-giant-submarines-san-francisco-3,37.733449,-122.434241,37.73360613,-122.4341891,twinpeaks,1,$0.00 ,fastfood,4,92,116,4
509,CAFE BAKERY,Cafe Bakery & Restaurant,cafe-bakery-and-restaurant-san-francisco-2,37.75409,-122.478248,37.75410086,-122.4782065,sunset,2,$11.00 ,bakeries,4,79.5,411,3.5
510,DONUT TIME,Donut Times,donut-times-san-francisco,37.753633,-122.48954,37.75344,-122.48953,sunset,2,$11.00 ,fastfood,4,87.25,1,1
519,SHERATON PALACE - EMP.  CAFETERIA,Palace Hotel,palace-hotel-san-francisco,37.788286,-122.401543,37.78825733,-122.4017068,financialdistrict,3,$31.00 ,venue,3,94.33,835,3.5
520,DAILY HEALTH,Daily Health Food Center,daily-health-food-center-san-francisco,37.758941,-122.48591,37.76526,-122.46672,sunset,2,$11.00 ,grocery,3,89,73,4
522,BOUDIN BAKERY,Boudin Bakery & Cafe,boudin-bakery-and-cafe-san-francisco-11,37.728497,-122.475639,37.72866104,-122.4767587,sunset,1,$0.00 ,bakeries,6,96.83,195,3.5
527,MELISA'S CHINESE CUISINE,Melisa's Chinese Cuisine,melisas-chinese-cuisine-san-francisco,37.777292,-122.463496,37.77745,-122.46374,richmond,1,$0.00 ,chinese,4,87.75,221,3.5
529,NIZARIO'S PIZZA,Nizario's Pizza,nizarios-pizza-san-francisco-2,37.781278,-122.460661,37.78149,-122.46067,richmond,1,$0.00 ,fastfood,4,89.5,589,3.5
538,MARNEE THAI RESTAURANT,Marnee Thai,marnee-thai-san-francisco,37.763343,-122.481809,37.76311,-122.4818,sunset,2,$11.00 ,thai,4,89,1468,4
539,EL SALVADOR RESTAURANT,El Salvador,el-salvador-san-francisco,37.760579,-122.41932,37.76064,-122.41952,mission,1,$0.00 ,latinamerican,4,95.5,77,4
542,HAMBURGER HAVEN,Hamburger Haven,hamburger-haven-san-francisco,37.782799,-122.467852,37.7830299,-122.46786,richmond,1,$0.00 ,coffeetea,2,87.5,247,3.5
544,THAI TIME RESTAURANT,Thai Time Restaurant,thai-time-restaurant-san-francisco,37.782534,-122.466615,37.7824738,-122.466704,richmond,1,$0.00 ,thai,3,85.67,585,4
547,LITTLE HENRY'S,Little Henry's,little-henrys-san-francisco-2,37.775728,-122.497522,37.77592087,-122.4975204,richmond,2,$11.00 ,italian,5,98.4,215,3
551,GORDO TAQUERIA,Gordo Taqueria,gordo-taqueria-san-francisco-2,37.782107,-122.483631,37.78232,-122.48364,richmond,1,$0.00 ,fastfood,3,88,667,4
552,LOI'S VIETNAMESE RESTAURANT,Loi's Vietnamese Restaurant,lois-vietnamese-restaurant-san-francisco,37.763428,-122.481736,37.7634859,-122.4820102,sunset,1,$0.00 ,vietnamese,3,85.67,571,3.5
557,KATIA'S,Katia's Russian Tea Room,katias-russian-tea-room-san-francisco,37.77721,-122.462874,37.7771492,-122.4626923,richmond,2,$11.00 ,european,2,87.5,238,4
558,CAJUN PACIFIC,Cajun Pacific,cajun-pacific-san-francisco,37.762304,-122.506543,37.7623772,-122.5065697,sunset,2,$11.00 ,american,3,94.67,298,4
562,DESTINO RESTAURANT,Destino,destino-san-francisco-3,37.771437,-122.423892,37.7712961,-122.4238193,mission,2,$11.00 ,latinamerican,3,99.33,1109,4
573,MUFFIN'S MUFFIN,Muffins Muffins,muffins-muffins-san-francisco,37.787755,-122.399372,37.7878039,-122.3993022,financialdistrict,1,$0.00 ,bakeries,2,94,149,3.5
580,TACO LOS ALTOS,Taco Los Altos,taco-los-altos-san-francisco,37.738979,-122.414971,37.7390378,-122.414844,bernalheights,1,$0.00 ,mexican,4,94,196,3.5
587,NEW TSING TAO RESTAURANT,New Tsing Tao Restaurant,new-tsing-tao-restaurant-san-francisco,37.740654,-122.465389,37.7405199,-122.46543,twinpeaks,2,$11.00 ,chinese,3,91.33,118,3.5
588,BURRITO EXPRESS,El Burrito Express,el-burrito-express-san-francisco,37.742673,-122.48334,37.742587,-122.483301,sunset,1,$0.00 ,mexican,4,84,745,3.5
589,WON TON HOUSE,Won-Ton-House,won-ton-house-san-francisco,37.754106,-122.477841,37.7540126,-122.4781376,sunset,1,$0.00 ,chinese,3,80,382,3.5
591,YOU SEE SUSHI,You See Sushi,you-see-sushi-san-francisco,37.762378,-122.462692,37.76249,-122.462642,sunset,1,$0.00 ,japanese,3,88.33,270,3.5
606,TSING TAO,Tsing Tao Chinese,tsing-tao-chinese-san-francisco,37.781624,-122.492609,37.781926,-122.492455,richmond,1,$0.00 ,chinese,2,81.5,242,3.5
610,POMELO,Pomelo On Judah,pomelo-on-judah-san-francisco,37.762378,-122.462692,37.76247,-122.46269,sunset,2,$11.00 ,asian,3,84.33,370,4
615,J & A RESTAURANT,J & A Restaurant,j-and-a-restaurant-san-francisco,37.709857,-122.449709,37.710037,-122.449872,mission,1,$0.00 ,chinese,4,97,111,4
619,A-1 BAKERY,A1 Bakery and Cafe,a1-bakery-and-cafe-san-francisco,37.724824,-122.460726,37.72455,-122.46078,twinpeaks,1,$0.00 ,bakeries,5,89.6,26,3.5
627,EDDIES CAFE,Eddie's Cafe,eddies-cafe-san-francisco,37.776898,-122.438098,37.77707,-122.43792,westernaddition,1,$0.00 ,american,4,91.5,527,4
628,EL BURRITO EXPRESS #2,El Burrito Express 2,el-burrito-express-2-san-francisco,37.786407,-122.440057,37.78646,-122.43982,pacificheights,1,$0.00 ,mexican,3,89,537,4
631,SUBWAY SANDWICHES & SALADS,Subway,subway-san-francisco-50,37.78332,-122.432647,37.7834426,-122.4325643,pacificheights,1,$0.00 ,fastfood,2,95,41,2.5
639,SWAN OYSTER DEPOT,Swan Oyster Depot,swan-oyster-depot-san-francisco,37.790734,-122.420783,37.790939,-122.420796,nobhill,2,$11.00 ,seafood,4,93,2058,4
642,ANDERSEN BAKERY,Andersen Bakery,andersen-bakery-san-francisco,37.785457,-122.430317,37.785354,-122.4303915,pacificheights,1,$0.00 ,bakeries,4,98.5,212,4
645,TAN-TAN,Tan Tan Coffee Shop,tan-tan-coffee-shop-san-francisco,37.785274,-122.431918,37.78497314,-122.4318542,pacificheights,1,$0.00 ,coffeetea,2,99,48,4
659,GOLDEN COFFEE,Golden Coffee Shop,golden-coffee-shop-san-francisco,37.788322,-122.415218,37.7882027,-122.4153505,nobhill,1,$0.00 ,american,4,91,371,4
665,BRAZEN HEAD RESTAURANT,The Brazen Head,the-brazen-head-san-francisco,37.799218,-122.432517,37.7993037,-122.4322957,marina,3,$31.00 ,bars,2,87,553,4
670,VIKINGS GIANT SUBMARINE SANDWICHES,Viking's Giant Submarines,vikings-giant-submarines-san-francisco-2,37.801334,-122.424905,37.8013798,-122.4250627,marina,1,$0.00 ,fastfood,3,87.33,192,4
691,MARINA SUBMARINE,Marina Submarine,marina-submarine-san-francisco,37.796893,-122.436847,37.79678,-122.43683,marina,1,$0.00 ,fastfood,3,89.67,338,4
695,BARBARY COAST PASTRY & COFFEE,Barbary Coast,barbary-coast-san-francisco,37.784965,-122.408614,37.78487778,-122.4089661,downtown,1,$0.00 ,bakeries,3,96,80,3.5
703,THEM KY RESTAURANT,Them Ky,them-ky-san-francisco,37.784193,-122.417967,37.78415635,-122.4180921,downtown,1,$0.00 ,vietnamese,2,61.5,189,3.5
726,BEN WAH RESTAURANT,Ben Wah,ben-wah-san-francisco,37.788138,-122.440174,37.78835297,-122.4402008,pacificheights,1,$0.00 ,chinese,2,82.5,73,3
729,ASHOKA INDIAN CUISINE,Ashoka,ashoka-san-francisco-2,37.800758,-122.437024,37.80091,-122.43704,marina,2,$11.00 ,indian,2,86.5,193,3.5
741,MOZZARELLA DI BUFALA PIZZERIA II,Mozzarella Di Bufala Pizzeria,mozzarella-di-bufala-pizzeria-san-francisco-3,37.740052,-122.466544,37.7399981,-122.4664579,twinpeaks,2,$11.00 ,fastfood,3,84,507,3.5
744,CAFE BELLINI,Cafe Bellini,cafe-bellini-san-francisco-4,37.784317,-122.407563,37.78397809,-122.4071594,downtown,2,$11.00 ,bakeries,3,93.33,87,3
758,BAKERY/ICE CREAM/STOREROOM,Palace Hotel,palace-hotel-san-francisco,37.788286,-122.401543,37.78825733,-122.4017068,financialdistrict,3,$31.00 ,venue,3,98,837,3.5
760,TART TO TART,Tart To Tart,tart-to-tart-san-francisco-2,37.787598,-122.40071,37.78742218,-122.4009323,financialdistrict,1,$0.00 ,bakeries,3,90,205,3
765,APERTO RESTAURANT,Aperto Restaurant,aperto-restaurant-san-francisco-3,37.762568,-122.397192,37.762685,-122.3974,potrerohill,2,$11.00 ,italian,3,92,888,4
768,MOSHI MOSHI,Moshi Moshi,moshi-moshi-san-francisco,37.763187,-122.388895,37.76318,-122.38908,potrerohill,2,$11.00 ,japanese,3,93.67,553,3.5
773,MARIPOSA HUNTERS POINT YACHT CLUB,Mariposa Hunters Point Yacht Club,mariposa-hunters-point-yacht-club-san-francisco,37.77325,-122.387222,37.7731818,-122.3871523,soma,2,$11.00 ,venue,3,93,9,4
774,BAY VIEW BOAT CLUB,Mariposa Hunters Point Yacht Club,mariposa-hunters-point-yacht-club-san-francisco,37.772667,-122.387032,37.7731818,-122.3871523,soma,2,$11.00 ,venue,2,93,9,4
786,PIPERADE,Piperade,piperade-san-francisco,37.800674,-122.401484,37.80078155,-122.4015141,northbeach,3,$31.00 ,european,2,92,782,4
792,BOUDIN BAKERY,Boudin Bakery & Cafe,boudin-bakery-and-cafe-san-francisco-10,37.791924,-122.398588,37.8086306,-122.4101852,northbeach,2,$11.00 ,bakeries,3,92.67,656,3.5
795,BEN & JERRY'S,Ben & Jerry's,ben-and-jerrys-san-francisco-13,37.808494,-122.412,37.8090801,-122.4121515,northbeach,2,$11.00 ,desserts,3,96,12,2.5
796,HUNAN RESTAURANT,Henry's Hunan Restaurant,henrys-hunan-restaurant-san-francisco-2,37.798987,-122.402307,37.79903793,-122.4020081,northbeach,2,$11.00 ,chinese,2,75,171,3
798,SUSHI RAPTURE,Sushi Rapture,sushi-rapture-san-francisco,37.793997,-122.416267,37.79404,-122.41608,nobhill,2,$11.00 ,japanese,3,90,283,3.5
799,COURTYARD BY MARRIOTT,Courtyard San Francisco Fisherman's Wharf,courtyard-san-francisco-fishermans-wharf-san-francisco,37.806964,-122.41862,37.80714479,-122.4183137,northbeach,2,$11.00 ,venue,3,96.67,95,3.5
809,TRIPTYCH,Triptych,triptych-san-francisco,37.775797,-122.409002,37.7757166,-122.4089849,soma,2,$11.00 ,american,2,80,954,3.5
811,EDEN PLAZA CAFE,Eden Plaza Cafe,eden-plaza-cafe-san-francisco,37.783954,-122.395699,37.78451596,-122.3956668,soma,1,$0.00 ,fastfood,3,86.33,154,4
816,B & J QUARTER POUNDER BURGERS,B&J 1-4 Lb Burgers,b-and-j-1-4-lb-burgers-san-francisco,37.722374,-122.395841,37.7223005,-122.3959689,bayviewhunterspoint,1,$0.00 ,fastfood,3,87.67,39,3.5
821,LA SANTANECA,La Santaneca,la-santaneca-san-francisco,,,37.736247,-122.424265,bernalheights,1,$0.00 ,mexican,2,82.5,313,4
824,BABY'S EATERY AND PALABOK,Baby's Eatery and Palabok,babys-eatery-and-palabok-san-francisco-2,37.724579,-122.434879,37.72440009,-122.4349773,excelsior,1,$0.00 ,asian,3,82,68,4
826,ANGELINA'S DELI-CAFE & CATERING,Angelina's Deli Cafe,angelinas-deli-cafe-san-francisco,37.784038,-122.481982,37.78422546,-122.481987,richmond,2,$11.00 ,fastfood,3,93,277,4
827,TAQUERIA EL FAROLITO,El Farolito,el-farolito-san-francisco,37.721251,-122.437385,37.72111511,-122.4371643,excelsior,1,$0.00 ,mexican,3,91.33,540,4
830,LOS PLANES DE RENDEROS,Los Planes De Renderos Pupuseria,los-planes-de-renderos-pupuseria-san-francisco,37.723078,-122.435966,37.722923,-122.4358561,excelsior,1,$0.00 ,latinamerican,4,86.75,93,4
835,KAM PO KITCHEN,Kam Po Kitchen,kam-po-kitchen-san-francisco,37.797223,-122.410513,37.79719415,-122.410356,nobhill,1,$0.00 ,chinese,4,78.75,289,4
840,MOLINARI DELICATESSEN,Molinari Delicatessen,molinari-delicatessen-san-francisco,37.798556,-122.407707,37.79838181,-122.4078217,russianhill,2,$11.00 ,fastfood,3,79.33,925,4.5
843,ESTIA RESTAURANT,Estia,estia-san-francisco,37.798328,-122.407067,37.7983551,-122.4069366,northbeach,2,$11.00 ,european,2,74,161,3.5
845,CAFE JACQUELINE,Cafe Jacqueline,cafe-jacqueline-san-francisco,37.800428,-122.407517,37.80047,-122.40731,northbeach,3,$31.00 ,french,2,93,567,4
847,GOLDEN BOY PIZZA,Golden Boy Pizza,golden-boy-pizza-san-francisco,37.799648,-122.408033,37.7997956,-122.4080729,northbeach,1,$0.00 ,fastfood,2,86,2310,4.5
852,NEW HOLLYWOOD BAKERY & RESTAURANT,New Hollywood Bakery & Restaurant,new-hollywood-bakery-and-restaurant-san-francisco-2,,,37.79697999,-122.4066364,chinatown,1,$0.00 ,bakeries,2,69,61,4
854,FIRENZE BY NIGHT,Firenze by Night Ristorante,firenze-by-night-ristorante-san-francisco,37.798914,-122.408885,37.79887,-122.4091,russianhill,2,$11.00 ,italian,3,82,793,4
856,DELFINA RESTAURANT,Delfina,delfina-san-francisco,37.761514,-122.424318,37.76131,-122.42431,mission,3,$31.00 ,italian,4,94.25,1801,4
874,PANCHO'S SALSA BAR & GRILL,Pancho's Salsa Bar & Grill,panchos-salsa-bar-and-grill-san-francisco,37.792093,-122.421024,37.79206,-122.42125,nobhill,1,$0.00 ,mexican,4,91,348,3.5
876,"PATPONG THAI CUISINE, INC.",Patpong Thai Cuisine,patpong-thai-cuisine-san-francisco,37.781973,-122.48522,37.78186,-122.48521,richmond,2,$11.00 ,thai,3,89.67,209,3.5
880,DELICIOUS DIM SUM,Delicious Dim Sum,delicious-dim-sum-san-francisco,37.795974,-122.407574,37.796051,-122.4076004,chinatown,1,$0.00 ,chinese,2,67,656,4
884,HOUSE OF NANKING,House of Nanking,house-of-nanking-san-francisco,37.796463,-122.405224,37.79653,-122.405422,chinatown,2,$11.00 ,chinese,4,85.5,2630,3.5
886,LE PETIT CAFE,Le Petit Cafe,le-petit-cafe-san-francisco,37.795227,-122.39914,37.7953147,-122.398989,financialdistrict,1,$0.00 ,venue,3,98,20,4
891,LUCKY CREATION VEGETARIAN RESTAURANT LLC,Lucky Creation Vegetarian Restaurant,lucky-creation-vegetarian-restaurant-san-francisco,37.795078,-122.407433,37.79510597,-122.4073786,chinatown,1,$0.00 ,chinese,2,79,405,3.5
892,HAPPY DONUTS,Happy Donut,happy-donut-san-francisco-4,37.791348,-122.399834,37.7914474,-122.3998618,financialdistrict,1,$0.00 ,fastfood,4,88,184,3.5
902,MARCELLO'S PIZZA,Marcello's Pizza,marcellos-pizza-san-francisco,37.762057,-122.435145,37.76205444,-122.4353867,castro,1,$0.00 ,fastfood,3,94,615,4
903,SABRA RESTAURANT,Sabra Grill,sabra-grill-san-francisco,37.790874,-122.405634,37.79084,-122.4058,chinatown,2,$11.00 ,middleeastern,3,83.67,110,3
905,WORKING GIRLS' CAFE,Working Girls' Cafe,working-girls-cafe-san-francisco,37.790477,-122.404033,37.79058494,-122.4040487,downtown,1,$0.00 ,fastfood,3,95.67,436,4
911,CAFE DOLCI,Cafe Dolci,cafe-dolci-san-francisco,37.787153,-122.404148,37.78695256,-122.404431,downtown,1,$0.00 ,coffeetea,3,91,403,4
919,RITZ-CARLTON HOTEL,"The Ritz-Carlton, San Francisco",the-ritz-carlton-san-francisco-san-francisco-2,37.791757,-122.407377,37.79184341,-122.4068298,chinatown,4,$61.00 ,venue,4,93.5,357,4
920,RITZ-CARLTON HOTEL,"The Ritz-Carlton, San Francisco",the-ritz-carlton-san-francisco-san-francisco-2,37.791757,-122.407377,37.79184341,-122.4068298,chinatown,4,$61.00 ,venue,4,95,357,4
929,CAFE ETHIOPIA,Cafe Ethiopia,cafe-ethiopia-san-francisco,37.758832,-122.421359,37.75887,-122.42162,mission,2,$11.00 ,african,2,95,402,3.5
935,PEKING WOK RESTAURANT,Peking Wok Restaurant,peking-wok-restaurant-san-francisco,37.733891,-122.391183,37.73382,-122.39138,bayviewhunterspoint,1,$0.00 ,chinese,4,89,15,4
941,TWO JACKS SEAFOOD,Two Jacks Seafood,two-jacks-seafood-san-francisco,37.718016,-122.387696,37.71807946,-122.3877778,bayviewhunterspoint,2,$11.00 ,seafood,3,94.33,8,4
943,EL CASTILLITO TAQUERIA INC.,El Castillito,el-castillito-san-francisco-2,37.768776,-122.429095,37.76887438,-122.4292374,castro,1,$0.00 ,mexican,3,85.67,751,4
949,BUFFALO BURGERS RESTAURANT,Buffalo Burger Restaurant,buffalo-burger-restaurant-san-francisco,37.780372,-122.476354,37.78026,-122.47641,richmond,1,$0.00 ,fastfood,5,96.4,362,3.5
950,IRVING PIZZA,Irving Pizza,irving-pizza-san-francisco,37.763513,-122.47764,37.763294,-122.477636,sunset,1,$0.00 ,fastfood,3,94,545,3
951,KENTUCKY FRIED CHICKEN,KFC,kfc-san-francisco-20,37.763528,-122.478362,37.7636,-122.478,sunset,1,$0.00 ,fastfood,5,95.2,53,2
952,SHANGRILA VEGETARIAN REST,Shangri-La Vegetarian Restaurant,shangri-la-vegetarian-restaurant-san-francisco,37.763512,-122.47958,37.7636899,-122.47977,sunset,1,$0.00 ,chinese,3,88.33,366,4
961,JAVA BEACH CAFE,Java Beach Cafe,java-beach-cafe-san-francisco,37.760416,-122.509106,37.760452,-122.508934,sunset,1,$0.00 ,coffeetea,4,89.75,914,4
968,GOLDEN ISLAND CAFE,Golden Island Cafe,golden-island-cafe-san-francisco,37.754188,-122.477822,37.75436,-122.47783,sunset,1,$0.00 ,desserts,5,87.6,626,3.5
972,"MING TAI WUN TUN NOODLE, INC.",Ming Tai Wun-Tun Noodle,ming-tai-wun-tun-noodle-san-francisco,37.753614,-122.490219,37.75341415,-122.4902115,sunset,1,$0.00 ,chinese,3,80,163,3.5
984,VANIDA THAI KITCHEN,Vanida Thai Kitchen,vanida-thai-kitchen-san-francisco,37.742086,-122.498738,37.7421497,-122.4989692,sunset,2,$11.00 ,thai,4,90,378,3.5
985,THE SUNSET'S BEST SEAFOOD RESTAURANT,Sunset's Best Seafood Restaurant,sunsets-best-seafood-restaurant-san-francisco,37.742048,-122.499002,37.74227,-122.49901,sunset,1,$0.00 ,chinese,3,78,85,3.5
993,CHICK-N-DELI,Chick-N-Deli,chick-n-deli-san-francisco,37.713702,-122.443681,37.71383,-122.4438,excelsior,1,$0.00 ,fastfood,3,96.67,42,4
994,RAILROAD EXPRESSO CAFE,Railroad Expresso,railroad-expresso-san-francisco,37.731513,-122.45133,37.73149319,-122.4513817,mission,1,$0.00 ,coffeetea,5,94.8,44,3
999,SERRANO'S PIZZA II,Serrano's Pizza,serranos-pizza-san-francisco-2,37.756997,-122.420534,37.75714,-122.42051,mission,1,$0.00 ,fastfood,3,90.33,553,3.5
1000,HEUNG YUEN RESTAURANT,Heung Yuen Restaurant,heung-yuen-restaurant-san-francisco,37.755282,-122.420493,37.7552018,-122.4203735,mission,1,$0.00 ,chinese,3,76,194,4
1002,BIG MOUTH BURGERS,Big Mouth Burgers,big-mouth-burgers-san-francisco,37.752158,-122.420362,37.75225082,-122.4204514,mission,1,$0.00 ,fastfood,4,88.75,483,3.5
1003,RINCON PERUANO RESTAURANT,Rincon Peruano Restaurant,rincon-peruano-restaurant-san-francisco-5,37.749128,-122.417402,37.74917,-122.4174215,mission,2,$11.00 ,latinamerican,4,94,66,4.5
1005,CHAVITA'S MEXICAN RESTAURANT,Chavitas,chavitas-san-francisco,37.748855,-122.418134,37.74882,-122.41839,mission,1,$0.00 ,mexican,3,83.33,40,3.5
1008,VALENCIA PIZZA & PASTA,Valencia Pizza & Pasta,valencia-pizza-and-pasta-san-francisco,37.759944,-122.421356,37.76001967,-122.4213088,mission,2,$11.00 ,fastfood,4,97,381,4
1018,PETES BARBEQUE,Pete's Barbeque,petes-barbeque-san-francisco,37.758684,-122.418975,37.75877059,-122.4189994,mission,1,$0.00 ,american,3,98.67,246,4
1021,LA SANTANECA DE LA MISSION,La Santaneca De La Mission,la-santaneca-de-la-mission-san-francisco,37.751885,-122.418406,37.75192,-122.41814,mission,1,$0.00 ,mexican,3,93.67,248,4
1026,PHUKET THAI RESTAURANT,Phuket Thai Restaurant,phuket-thai-restaurant-san-francisco,37.771117,-122.436976,37.7711416,-122.4369561,haight,1,$0.00 ,thai,3,89.67,132,3
1031,IL BORGO,Il Borgo,il-borgo-san-francisco,37.775538,-122.426264,37.77569,-122.42628,westernaddition,2,$11.00 ,italian,3,92.67,545,3.5
1042,LOVE 'N HAIGHT COFFEE & DELI,Love N Haight Deli,love-n-haight-deli-san-francisco,37.771964,-122.431336,37.772004,-122.431261,haight,1,$0.00 ,fastfood,3,92.33,394,4
1043,CENTRAL COFFEE TEA & SPICE,Central Coffee Tea & Spice,central-coffee-tea-and-spice-san-francisco,37.774198,-122.444214,37.77421944,-122.4442108,haight,1,$0.00 ,coffeetea,3,96.67,270,4.5
1047,PORK STORE CAFE,Pork Store Cafe,pork-store-cafe-san-francisco,37.770063,-122.446247,37.76997,-122.44623,haight,2,$11.00 ,coffeetea,3,86,1235,4
1048,CREPE EXPRESS,Crepe Express,crepe-express-san-francisco,37.770068,-122.446644,37.77009152,-122.4465812,haight,1,$0.00 ,european,3,91,262,3
1060,BEAN THERE COFFEE & TEA,Bean There,bean-there-san-francisco,37.771123,-122.431953,37.77108,-122.43223,haight,1,$0.00 ,coffeetea,2,95,238,4
1065,UNIVERSAL CAFE,Universal Cafe,universal-cafe-san-francisco-5,37.760487,-122.410662,37.76062,-122.41064,mission,2,$11.00 ,coffeetea,3,87.67,1185,4
1075,"SANDWICH PLACE, THE",The Sandwich Place,the-sandwich-place-san-francisco,37.764384,-122.419566,37.76443,-122.4191,mission,1,$0.00 ,fastfood,4,88,223,4.5
1081,ARINELL PIZZA,Arinell Pizza,arinell-pizza-san-francisco,37.764744,-122.421803,37.76469072,-122.4217121,mission,1,$0.00 ,fastfood,4,92.5,1009,4
1085,STARBUCKS COFFEE,Starbucks,starbucks-san-francisco-169,37.792037,-122.397852,37.80641668,-122.4146676,financialdistrict,1,$0.00 ,coffeetea,2,94.5,3,2
1090,TRICOLORE CAFFE' AND PIZZERIA,Tricolore Caffe & Catering,tricolore-caffe-and-catering-san-francisco-4,37.795614,-122.403104,37.7956272,-122.4031122,financialdistrict,1,$0.00 ,fastfood,3,98.67,119,4
1102,HOANG DAT COFFEE SHOP,Hoang Dat Coffee Shop,hoang-dat-coffee-shop-san-francisco,37.786068,-122.418644,37.78625,-122.41857,nobhill,1,$0.00 ,vietnamese,5,91.2,84,4
1103,STARBUCKS COFFEE,Starbucks,starbucks-san-francisco-169,37.760938,-122.434692,37.80641668,-122.4146676,castro,1,$0.00 ,coffeetea,4,98,3,2
1111,SUBWAY 16604,Subway,subway-san-francisco,37.783713,-122.419357,37.78372,-122.4194581,downtown,1,$0.00 ,fastfood,2,90.5,26,2.5
1116,STARBUCKS COFFEE,Starbucks,starbucks-san-francisco-241,37.797713,-122.430336,37.79754,-122.43031,marina,1,$0.00 ,coffeetea,3,96,128,3.5
1122,STARBUCKS COFFEE,Starbucks,starbucks-san-francisco-167,37.800547,-122.438494,37.80074,-122.43851,marina,1,$0.00 ,coffeetea,4,95.75,88,3
1124,SQUAT & GOBBLE CAFE,Squat and Gobble Cafe & Crepery,squat-and-gobble-cafe-and-crepery-san-francisco-4,37.764248,-122.433392,37.76439,-122.4334,castro,2,$11.00 ,vegetarian,3,90.33,426,3.5
1125,PEET'S COFFEE & TEA,Peet's Coffee,peets-coffee-san-francisco-19,37.791554,-122.399565,37.79157639,-122.3993607,financialdistrict,1,$0.00 ,coffeetea,4,91.75,84,4
1127,STARBUCKS COFFEE,Starbucks,starbucks-san-francisco-143,37.792773,-122.403567,37.79226,-122.40348,financialdistrict,1,$0.00 ,coffeetea,3,92,35,4
1135,GEARY DRIVE IN,Tony's Cable Car Restaurant,tonys-cable-car-restaurant-san-francisco,37.782778,-122.444744,37.78282988,-122.4448657,pacificheights,1,$0.00 ,fastfood,2,95,339,3.5
1139,MINI CAFE,Boston Cafe,boston-cafe-san-francisco-2,37.775867,-122.419356,37.7747958,-122.4193094,soma,1,$0.00 ,vietnamese,2,79.5,37,4
1144,STAR BAGELS,Star Bagel,star-bagel-san-francisco,37.790324,-122.420664,37.79028,-122.4209,nobhill,1,$0.00 ,bakeries,5,79.4,72,3
1146,AUX DELICES VIETNAM,Aux Delices Vietnamese Restaurant,aux-delices-vietnamese-restaurant-san-francisco,37.798274,-122.422264,37.79822,-122.42253,russianhill,2,$11.00 ,vietnamese,4,78.75,682,4
1151,POMELO ON CHURCH,Pomelo,pomelo-san-francisco,37.742325,-122.426476,37.74229964,-122.4264423,noevalley,2,$11.00 ,coffeetea,3,92.67,650,4
1154,SUNFLOWER RESTAURANT,Sunflower Authentic Vietnamese Restaurant,sunflower-authentic-vietnamese-restaurant-san-francisco-2,37.764678,-122.421905,37.76479087,-122.4222299,mission,1,$0.00 ,vietnamese,3,92.33,1131,3.5
1156,BOUDIN PETIT CAFE,Boudin Bakery & Cafe,boudin-bakery-and-cafe-san-francisco-14,37.786548,-122.407313,37.78717422,-122.4073944,downtown,1,$0.00 ,bakeries,4,94.75,316,3.5
1157,SUTTER CAFE,Sutter Cafe,sutter-cafe-san-francisco,37.789625,-122.405894,37.7897134,-122.4057956,downtown,1,$0.00 ,desserts,4,91.75,28,4.5
1159,ZONA ROSA,Zona Rosa,zona-rosa-san-francisco,37.769363,-122.451667,37.76934855,-122.4516633,haight,1,$0.00 ,mexican,2,89.5,277,3.5
1186,TULLY'S  COFFEE,Tully's Coffee,tullys-coffee-san-francisco-9,37.792071,-122.434535,37.7920607,-122.4346367,pacificheights,1,$0.00 ,coffeetea,2,90,42,3.5
1188,OKINA SUSHI,Okina Sushi,okina-sushi-san-francisco,37.775723,-122.458445,37.77574,-122.45812,richmond,2,$11.00 ,japanese,1,100,355,4
1191,TEKKA JAPANESE RESTAURANT,Tekka Japanese Restaurant,tekka-japanese-restaurant-san-francisco,37.77714,-122.464412,37.7770524,-122.4647183,richmond,3,$31.00 ,japanese,2,91,363,4
1193,PEET'S COFFEE & TEA,Peet's Coffee,peets-coffee-san-francisco-15,37.786754,-122.450476,37.7863884,-122.4504089,richmond,1,$0.00 ,coffeetea,3,93,97,4
1194,SWEET THINGS,Sweet Things,sweet-things-san-francisco,37.786453,-122.452807,37.7860794,-122.4527512,richmond,2,$11.00 ,bakeries,3,99.33,149,4
1199,PANCHO'S,Pancho's Salsa Bar & Grill,panchos-salsa-bar-and-grill-san-francisco-2,37.781507,-122.456176,37.78169,-122.45618,richmond,1,$0.00 ,mexican,3,96,379,3
1203,TAWAN'S THAI FOOD,Tawan's Thai Food,tawans-thai-food-san-francisco,37.780834,-122.46659,37.7806,-122.46658,richmond,2,$11.00 ,thai,3,94.67,354,3.5
1204,ROYAL GROUND COFFEE,Royal Ground Coffee,royal-ground-coffee-san-francisco-3,37.780394,-122.47641,37.780314,-122.476362,richmond,1,$0.00 ,coffeetea,5,93.6,161,3.5
1207,TAQUERIA LA PAZ,Taqueria La Paz,taqueria-la-paz-san-francisco-2,37.782732,-122.414139,37.7826251,-122.4142609,downtown,1,$0.00 ,mexican,1,56,26,4
1216,ZAOH RESTAURANT,Zaoh Restaurant,zaoh-restaurant-san-francisco,37.773467,-122.418093,37.77317,-122.41787,soma,2,$11.00 ,japanese,2,76,196,3.5
1219,PAZZO,Caffe Pazzo,caffe-pazzo-san-francisco,37.769287,-122.403974,37.76911163,-122.4044266,soma,1,$0.00 ,coffeetea,3,91.67,157,3.5
1232,SUNFLOWER CAFE,Sunflower Cafe,sunflower-cafe-san-francisco,37.786316,-122.409371,37.7863892,-122.4094061,downtown,1,$0.00 ,coffeetea,4,94,48,2.5
1241,BANWICH,Banhwich,banhwich-san-francisco,37.742895,-122.477898,37.74278,-122.47815,sunset,1,$0.00 ,vietnamese,4,89.25,183,3.5
1243,JAVA SUPREME,Java Supreme,java-supreme-san-francisco,37.759934,-122.423553,37.7598267,-122.4235551,mission,1,$0.00 ,coffeetea,4,92.25,177,4.5
1244,THANH THANH,Thanh Thanh Cafe,thanh-thanh-cafe-san-francisco,37.782053,-122.482799,37.7819608,-122.4829725,richmond,1,$0.00 ,vietnamese,2,75.5,102,3.5
1249,KABABAYAN FAST FOOD,Kababayan,kababayan-san-francisco,37.753691,-122.418657,37.753573,-122.4187518,mission,1,$0.00 ,asian,4,83.75,49,3.5
1259,KD'S GROG & GROCERY,K D's Grog N' Grocery,k-ds-grog-n-grocery-san-francisco,37.762602,-122.435384,37.76275253,-122.4356689,haight,3,$31.00 ,bars,3,93.33,11,2.5
1261,REVERIE COFFEE CAFE,Cafe Reverie,cafe-reverie-san-francisco,37.766097,-122.449997,37.766169,-122.449763,haight,2,$11.00 ,coffeetea,6,87.5,477,4
1262,NORTH BEACH PIZZA,North Beach Pizza,north-beach-pizza-san-francisco-4,37.767286,-122.453075,37.7671797,-122.4529545,haight,1,$0.00 ,fastfood,2,86,217,3
1263,LAVA JAVA,Lava Java,lava-java-san-francisco,37.766812,-122.452974,37.7669286,-122.4528939,haight,1,$0.00 ,coffeetea,2,90.5,147,4
1265,STARBUCKS COFFEE,Starbucks,starbucks-san-francisco-164,37.764088,-122.465981,37.76412481,-122.4660493,sunset,1,$0.00 ,coffeetea,3,97.33,134,2.5
1274,MORNING DUE,Morning Due Cafe,morning-due-cafe-san-francisco,37.762939,-122.428473,37.7630481,-122.4284266,castro,2,$11.00 ,coffeetea,3,86.33,385,4
1280,AMASIA HIDE'S SUSHI BAR,Amasia Hide's Sushi Bar,amasia-hides-sushi-bar-san-francisco,37.766774,-122.433306,37.7667628,-122.4331937,castro,2,$11.00 ,japanese,2,97,299,4
1282,MAXFIELDS,Maxfield's House of Caffeine,maxfields-house-of-caffeine-san-francisco,37.763168,-122.426345,37.76315,-122.42662,castro,1,$0.00 ,coffeetea,3,96,234,3.5
1289,ORPHAN ANDY'S,Orphan Andy's,orphan-andys-san-francisco,37.758132,-122.435614,37.76238,-122.43486,castro,2,$11.00 ,american,4,88.25,714,3.5
1294,ANCHOR OYSTER BAR INC.,Anchor Oyster Bar,anchor-oyster-bar-san-francisco,37.759613,-122.434817,37.759689,-122.434609,castro,3,$31.00 ,seafood,4,92.5,1147,4.5
1296,TAQUERIA EL BUEN SABOR,Taqueria el Buen Sabor,taqueria-el-buen-sabor-san-francisco,37.761743,-122.421492,37.76187792,-122.4215213,mission,1,$0.00 ,mexican,3,93.33,454,4
1300,WE BE SUSHI,We Be Sushi,we-be-sushi-san-francisco,37.755824,-122.420986,37.75575913,-122.42095,mission,2,$11.00 ,japanese,3,91.33,373,3.5
1304,RAIN TREE CAFE,Cafe Rain Tree,cafe-rain-tree-san-francisco-2,37.764128,-122.464961,37.76423336,-122.465134,sunset,1,$0.00 ,american,2,84,209,2.5
1318,GORDO TAQUERIA,Gordo Taqueria,gordo-taqueria-san-francisco-3,37.780517,-122.477804,37.7805749,-122.4780676,richmond,1,$0.00 ,mexican,5,89.2,437,3.5
1322,LA MEDITERRANEE,La Mediterranee,la-mediterranee-san-francisco-8,37.789961,-122.433962,37.7900665,-122.4338783,pacificheights,2,$11.00 ,middleeastern,2,93,1257,4
1323,THE BLACK HORSE LONDON DELI,The Black Horse London Pub,the-black-horse-london-pub-san-francisco,37.798528,-122.424394,37.79865,-122.42441,marina,1,$0.00 ,bars,2,86,288,4.5
1332,CHLOE'S,Chloe's Cafe,chloes-cafe-san-francisco,37.748594,-122.427116,37.74863512,-122.4269552,noevalley,2,$11.00 ,coffeetea,3,86.33,842,4
1337,SAN MIGUEL RESTAURANT,San Miguel,san-miguel-san-francisco,37.744726,-122.420395,37.7446434,-122.4203266,bernalheights,2,$11.00 ,latinamerican,4,81,101,4
1339,HIGHER GROUNDS,Higher Grounds Coffee House,higher-grounds-coffee-house-san-francisco,37.734483,-122.43368,37.73435593,-122.4337235,twinpeaks,2,$11.00 ,coffeetea,4,92.75,345,4.5
1341,SPIKE'S COFFEES & TEAS,Spike's Coffees & Teas,spikes-coffees-and-teas-san-francisco,37.759253,-122.43503,37.75916,-122.43503,castro,1,$0.00 ,coffeetea,2,89,176,4.5
1344,BEANERY,Beanery,beanery-san-francisco,37.758941,-122.48591,37.76382614,-122.4663853,sunset,1,$0.00 ,coffeetea,3,94,282,4
1345,CORDON BLEU,Cordon Bleu,cordon-bleu-san-francisco,37.790683,-122.420264,37.7907203,-122.4205111,nobhill,1,$0.00 ,vietnamese,4,83,878,4
1347,CREPES ON COLE,Crepes On Cole,crepes-on-cole-san-francisco,37.765778,-122.450184,37.76589966,-122.4502716,haight,2,$11.00 ,european,4,79.25,603,3.5
1350,KING OF THAI NOODLE HOUSE,King of Thai Noodle House,king-of-thai-noodle-house-san-francisco-4,37.782833,-122.46615,37.78262,-122.46614,richmond,1,$0.00 ,thai,2,84.5,875,3.5
1352,LA TORTILLA,La Tortilla,la-tortilla-san-francisco,37.760954,-122.434935,37.76109,-122.4347,castro,1,$0.00 ,mexican,3,85,259,3
1354,SUSHI TIME,Sushi Time,sushi-time-san-francisco-2,37.764697,-122.432322,37.76455688,-122.4320602,castro,2,$11.00 ,japanese,3,96,662,4
1359,STARBUCKS COFFEE,Starbucks,starbucks-san-francisco-138,37.785907,-122.439957,37.7859726,-122.4396973,pacificheights,1,$0.00 ,coffeetea,3,98.67,58,3
1362,RESTAURANTE FAMILIAR,Restaurante Familiar,restaurante-familiar-san-francisco,37.726402,-122.433476,37.72624,-122.43327,excelsior,1,$0.00 ,mexican,4,91.75,28,4
1366,CAFE LA TAZA,Cafe La Taza,cafe-la-taza-san-francisco-2,37.757436,-122.41888,37.75748062,-122.4185867,mission,1,$0.00 ,coffeetea,4,90.5,254,4
1368,STARBUCKS COFFEE,Starbucks,starbucks-san-francisco-169,37.797754,-122.400925,37.80641668,-122.4146676,financialdistrict,1,$0.00 ,coffeetea,3,95,3,2
1381,PEBBLE'S CAFE,Pebbles Cafe,pebbles-cafe-san-francisco,37.73382,-122.434093,37.7338028,-122.4342422,twinpeaks,2,$11.00 ,coffeetea,4,90.75,45,3
1389,GASPARE'S PIZZA HOUSE & REST.,Gaspare's Pizza House & Italian Restaurant,gaspares-pizza-house-and-italian-restaurant-san-francisco,37.78047,-122.478832,37.7806,-122.47915,richmond,2,$11.00 ,italian,2,89.5,802,4
1396,SAUCE SF,Sauce - Gough,sauce-gough-san-francisco,37.774644,-122.422554,37.7746048,-122.4227905,westernaddition,2,$11.00 ,american,2,90.5,1076,3.5
1398,YUMMA'S MED GRILL,Yumma's Mediterranean Grill,yummas-mediterranean-grill-san-francisco,37.764053,-122.465539,37.76386,-122.46553,sunset,1,$0.00 ,european,3,87.67,542,4
1399,LA COPA LOCA,La Copa Loca,la-copa-loca-san-francisco-2,37.755538,-122.417982,37.75560207,-122.4178091,mission,1,$0.00 ,desserts,3,98.67,265,4
1409,STARBUCKS COFFEE,Starbucks,starbucks-san-francisco-93,37.792137,-122.394573,37.79198534,-122.3945618,financialdistrict,1,$0.00 ,coffeetea,2,98,46,3.5
1413,STARBUCKS COFFEE,Starbucks,starbucks-san-francisco-244,37.780305,-122.477825,37.78008,-122.47805,richmond,1,$0.00 ,coffeetea,5,100,100,3
1426,SWEET DELIGHT BAKERY,Sweet Delight Bakery,sweet-delight-bakery-san-francisco,37.726117,-122.433817,37.72621536,-122.4340057,mission,1,$0.00 ,bakeries,4,82.75,44,3.5
1434,HOLEY BAGEL BAKERY,Holey Bagel,holey-bagel-san-francisco,37.751628,-122.429122,37.75183868,-122.4291458,noevalley,1,$0.00 ,bakeries,3,89.67,122,3.5
1438,CABLE CAR COFFEE CO,Cable Car Coffee Company,cable-car-coffee-company-san-francisco,37.783658,-122.408568,37.78394647,-122.4082055,downtown,1,$0.00 ,coffeetea,3,89,21,4
1442,WATERFRONT BAKERY,Waterfront Bakery,waterfront-bakery-san-francisco,37.807155,-122.419004,37.80727768,-122.4194717,russianhill,2,$11.00 ,bakeries,2,87.5,59,3.5
1444,STARBUCKS COFFEE,Starbucks,starbucks-san-francisco-242,37.790086,-122.422167,37.79015,-122.42176,nobhill,1,$0.00 ,coffeetea,3,93.33,49,3
1452,CAFE V,V Cafe,v-cafe-san-francisco,37.771538,-122.414372,37.77143,-122.41428,soma,1,$0.00 ,fastfood,2,88,201,4
1454,KISS SEAFOOD,Kiss Seafood,kiss-seafood-san-francisco,37.786838,-122.428317,37.78718,-122.42843,pacificheights,4,$61.00 ,japanese,2,93,512,4
1458,BIO,Bio Cafe,bio-cafe-san-francisco,37.786633,-122.405972,37.7866441,-122.4059404,downtown,1,$0.00 ,coffeetea,4,80,340,3.5
1465,BAZAAR CAFE,Bazaar Cafe,bazaar-cafe-san-francisco,37.784023,-122.481199,37.78382,-122.48119,richmond,1,$0.00 ,coffeetea,5,92.6,277,4
1466,WHOLE FOODS STEEP BREW,Whole Foods Market Franklin,whole-foods-market-franklin-san-francisco,37.790193,-122.423437,37.789924,-122.423385,pacificheights,3,$31.00 ,grocery,3,98.67,697,3.5
1469,HOLIDAY INN,Holiday Inn Express & Suites San Francisco Fishermans Wharf,holiday-inn-express-and-suites-san-francisco-fishermans-wharf-san-francisco-5,37.806288,-122.416244,37.80644764,-122.41624,northbeach,2,$11.00 ,venue,3,100,143,3.5
1482,A2 CAFE,A2/Rustico Cafe,a2-rustico-cafe-san-francisco,37.767224,-122.399039,37.7672647,-122.4001273,soma,1,$0.00 ,italian,3,91.33,24,3.5
1486,STARBUCKS COFFEE,Starbucks,starbucks-san-francisco-128,37.744736,-122.452666,37.7445499,-122.45256,twinpeaks,1,$0.00 ,coffeetea,2,97,94,4
1487,PEET'S COFFEE & TEA,Peet's Coffee,peets-coffee-san-francisco-34,37.787834,-122.399522,37.78805427,-122.3996586,financialdistrict,1,$0.00 ,coffeetea,3,91.67,122,4
1493,PEET'S COFFEE & TEA,Peet's Coffee,peets-coffee-san-francisco-14,37.795184,-122.393819,37.795558,-122.3934375,northbeach,1,$0.00 ,coffeetea,4,96,147,3.5
1496,FOUR SEASONS HOTEL- EMPLOYEE  CAFETERIA,Four Seasons Hotel San Francisco,four-seasons-hotel-san-francisco-san-francisco,37.786476,-122.404852,37.78638576,-122.4044768,downtown,4,$61.00 ,venue,2,94.5,259,4.5
1505,STARBUCKS COFFEE,Starbucks,starbucks-san-francisco-248,37.790376,-122.405544,37.79034,-122.4058,downtown,1,$0.00 ,coffeetea,3,94.67,69,3
1511,MAMA' ART CAFE,Mama Art Cafe,mama-art-cafe-san-francisco-2,37.721949,-122.436936,37.722,-122.43701,mission,1,$0.00 ,venue,3,91.33,150,4
1520,STARBUCKS COFFEE,Starbucks,starbucks-san-francisco-141,37.789314,-122.395192,37.78990743,-122.3945615,financialdistrict,1,$0.00 ,coffeetea,2,100,51,4
1526,CHOUQUET'S,Chouquet's,chouquets-san-francisco,37.791607,-122.434563,37.791795,-122.434541,pacificheights,2,$11.00 ,french,4,82,521,3
1527,CITY'S CHOICE,Citys Choice,citys-choice-san-francisco,37.780263,-122.403323,37.78017044,-122.4029541,soma,1,$0.00 ,fastfood,3,90,18,3.5
1529,STARBUCKS COFFEE,Starbucks,starbucks-san-francisco-169,37.778694,-122.396139,37.80641668,-122.4146676,soma,1,$0.00 ,coffeetea,2,91,3,2
1534,CAFE NIEBAUM COPPOLA,Cafe Zoetrope,cafe-zoetrope-san-francisco,37.796517,-122.405167,37.79655,-122.40499,financialdistrict,2,$11.00 ,italian,2,95,314,3.5
1542,I LUV TERIYAKI AND SUSHI,I Luv Teriyaki & Sushi,i-luv-teriyaki-and-sushi-san-francisco,37.766293,-122.407671,37.7659525,-122.4077049,mission,2,$11.00 ,japanese,2,79.5,196,3.5
1544,OMNI S.F. HOTEL,Omni San Francisco,omni-san-francisco-san-francisco,37.792888,-122.403135,37.792877,-122.4028272,financialdistrict,3,$31.00 ,venue,4,98.5,471,4.5
1549,CAFE BELLINI,Cafe Bellini,cafe-bellini-san-francisco,37.786974,-122.408174,37.78692627,-122.4084244,downtown,2,$11.00 ,american,3,93,321,3
1555,FINO,Fino Ristorante & Bar,fino-ristorante-and-bar-san-francisco,37.788094,-122.41176,37.7879505,-122.4120232,nobhill,2,$11.00 ,italian,3,100,824,4
1564,CORNELL HOTEL - JEANNE D'ARC,Restaurant Jeanne D' Arc,restaurant-jeanne-d-arc-san-francisco,37.790103,-122.409117,37.78987,-122.40908,downtown,3,$31.00 ,french,2,100,259,4
1565,UNCLE VITO'S PIZZA,Uncle Vito's Pizza,uncle-vitos-pizza-san-francisco,37.790219,-122.408849,37.7902711,-122.4089926,nobhill,2,$11.00 ,fastfood,3,88,879,4
1567,TANPOPO,Tanpopo,tanpopo-san-francisco,37.785961,-122.429776,37.785897,-122.4296553,pacificheights,2,$11.00 ,japanese,3,79.67,1321,3.5
1568,901 COLUMBUS CAFE,901 Columbus Cafe,901-columbus-cafe-san-francisco-2,37.803056,-122.414186,37.80294,-122.41426,russianhill,1,$0.00 ,coffeetea,4,90.25,313,4
1571,SF BAY CLUB,Bay Club San Francisco,bay-club-san-francisco-san-francisco-2,37.803208,-122.402534,37.80344391,-122.402626,northbeach,3,$31.00 ,venue,2,82.5,255,4
1579,NICK'S LIGHTHOUSE,Nick's Lighthouse,nicks-lighthouse-san-francisco,37.802479,-122.411234,37.8082863,-122.4159711,northbeach,2,$11.00 ,seafood,4,91.5,714,3
1582,CAFFE BIANCO,Caffe Bianco,caffe-bianco-san-francisco,37.790102,-122.401158,37.79010549,-122.4011875,financialdistrict,1,$0.00 ,coffeetea,3,88,160,4
1584,ESPERPENTO RESTAURANT,Esperpento,esperpento-san-francisco,37.755303,-122.420649,37.75522262,-122.4207391,mission,2,$11.00 ,european,4,86.5,1211,3.5
1594,YOUNG'S RESTAURANT,Young's Cafe,youngs-cafe-san-francisco,37.793702,-122.404653,37.79364395,-122.404808,chinatown,1,$0.00 ,chinese,2,89.5,91,3.5
1595,ZAZIE,Zazie,zazie-san-francisco,37.765343,-122.449914,37.765244,-122.4501138,haight,2,$11.00 ,coffeetea,4,85.25,3448,4
1596,BURGERMEISTER,Burgermeister,burgermeister-san-francisco-2,37.765848,-122.449664,37.76601,-122.44969,haight,2,$11.00 ,fastfood,4,84.5,516,3.5
1598,CAFE BEAN,Cafe Bean,cafe-bean-san-francisco,37.788587,-122.413795,37.78879929,-122.4138412,nobhill,1,$0.00 ,coffeetea,4,96,145,4
1607,LE ZINC,Le Zinc,le-zinc-san-francisco-2,37.751323,-122.433249,37.75109863,-122.4332352,noevalley,2,$11.00 ,french,3,94,515,3.5
1608,CLADDAGH COFFEE,Claddagh Coffee,claddagh-coffee-san-francisco,37.715997,-122.440048,37.71618652,-122.4398575,excelsior,1,$0.00 ,coffeetea,4,91,56,3
1609,TUNG SING RESTAURANT,Tung Sing Restaurant,tung-sing-restaurant-san-francisco,37.751373,-122.432319,37.75112,-122.4323,noevalley,1,$0.00 ,chinese,4,87.5,78,3
1613,BRICK HOUSE CAFE,Brickhouse Cafe,brickhouse-cafe-san-francisco-2,37.779534,-122.395099,37.77965546,-122.3952332,soma,2,$11.00 ,american,3,97,1043,3.5
1614,STARBUCKS COFFEE,Starbucks,starbucks-san-francisco-169,37.791227,-122.398872,37.80641668,-122.4146676,financialdistrict,1,$0.00 ,coffeetea,3,98.67,3,2
1615,STARBUCKS COFFEE,Starbucks,starbucks-san-francisco-169,37.794184,-122.396524,37.80641668,-122.4146676,financialdistrict,1,$0.00 ,coffeetea,3,97.33,3,2
1617,CLEMENT BBQ RESTAURANT,Clement Restaurant,clement-restaurant-san-francisco,37.782843,-122.4659,37.78266525,-122.4659119,richmond,1,$0.00 ,chinese,2,83.5,234,4
1619,BENDERS BAR & GRILL,Bender's Bar and Grill,benders-bar-and-grill-san-francisco,37.76031,-122.417123,37.7601948,-122.4171804,mission,1,$0.00 ,bars,2,97,414,4
1623,BISTRO BURGER,Bistro Burger,bistro-burger-san-francisco-4,37.790844,-122.403168,37.79370296,-122.4016987,financialdistrict,2,$11.00 ,american,3,93.67,250,3
1626,LUPA TRATTORIA,Lupa Trattoria,lupa-trattoria-san-francisco,37.751243,-122.434529,37.75102615,-122.4345245,noevalley,2,$11.00 ,italian,3,92.67,521,4
1631,CASA MEXICANA RESTAURANT,Casa Mexicana II,casa-mexicana-ii-san-francisco,37.751513,-122.430179,37.75141,-122.43017,noevalley,1,$0.00 ,mexican,3,85,240,3
1632,SWEET CHINITO,Sweet Chinito,sweet-chinito-san-francisco,37.748164,-122.418241,37.74790284,-122.4185582,bernalheights,1,$0.00 ,coffeetea,5,95.2,80,4.5
1635,KEZAR PUB,Kezar Pub,kezar-pub-san-francisco-2,37.767828,-122.453227,37.7678833,-122.4529037,haight,2,$11.00 ,bars,3,90.33,602,4
1636,AXUM,Axum Cafe,axum-cafe-san-francisco,37.771738,-122.433583,37.77193,-122.43362,haight,2,$11.00 ,african,1,96,385,3.5
1641,MARTHA & BROTHERS COFFEE,Martha & Bros Coffee Company,martha-and-bros-coffee-company-san-francisco-7,37.745974,-122.426856,37.745998,-122.426645,noevalley,1,$0.00 ,coffeetea,4,90.75,176,4
1649,COURTYARD BY MARRIOTT,Courtyard San Francisco Downtown,courtyard-san-francisco-downtown-san-francisco,37.785614,-122.396693,37.78596,-122.39682,financialdistrict,2,$11.00 ,venue,2,98,226,3.5
1652,STARBUCKS COFFEE,Starbucks,starbucks-san-francisco-169,37.785037,-122.400432,37.80641668,-122.4146676,financialdistrict,1,$0.00 ,coffeetea,3,96.33,3,2
1664,PANDA EXPRESS,Panda Express,panda-express-san-francisco-3,37.784317,-122.407563,37.78394,-122.40715,downtown,1,$0.00 ,chinese,3,96.67,129,2.5
1668,SILVER CREST DONUT SHOP,Silver Crest Donut Shop,silver-crest-donut-shop-san-francisco,37.742456,-122.405766,37.74234266,-122.4061377,bayviewhunterspoint,2,$11.00 ,fastfood,2,99,79,3
1671,JUST FOR YOU CAFE INC.,Just For You Cafe,just-for-you-cafe-san-francisco,37.757948,-122.388862,37.75795851,-122.388854,potrerohill,2,$11.00 ,american,4,90.75,1223,4
1672,WORKING GIRLS' CAFE,Working Girls' Cafe,working-girls-cafe-san-francisco-2,37.792308,-122.393809,37.7923364,-122.3941996,financialdistrict,1,$0.00 ,fastfood,1,94,216,4
1674,NORDSTROM CAFE BISTRO,Cafe Bistro,cafe-bistro-san-francisco-4,37.784317,-122.407563,37.78411058,-122.4073364,downtown,2,$11.00 ,american,4,87.25,732,4
1677,PRIMO PATIO CAFE,Primo Patio Cafe,primo-patio-cafe-san-francisco,37.778593,-122.393149,37.7786607,-122.3932278,soma,2,$11.00 ,latinamerican,2,91,863,4
1685,"NEW LUN TING CAFE, INC",New Lun Ting Cafe,new-lun-ting-cafe-san-francisco,37.796098,-122.406275,37.79611663,-122.4062607,chinatown,1,$0.00 ,coffeetea,4,91.25,220,4
1687,SAI'S VIETNAMESE RESTAURANT,Sai's Restaurant,sais-restaurant-san-francisco,37.795659,-122.40172,37.79561566,-122.4019062,financialdistrict,2,$11.00 ,vietnamese,3,89,435,3.5
1692,PLOUF,Plouf,plouf-san-francisco,37.791318,-122.403757,37.7913007,-122.4037085,financialdistrict,2,$11.00 ,seafood,3,89,947,3.5
1699,TWI LIGHT CAFE,Twilight Cafe,twilight-cafe-san-francisco,37.775698,-122.455034,37.77570047,-122.4550885,richmond,1,$0.00 ,middleeastern,2,100,92,4
1700,RAINTREE CAFE,Cafe Rain Tree,cafe-rain-tree-san-francisco-3,37.739413,-122.46744,37.73954585,-122.4673227,twinpeaks,1,$0.00 ,coffeetea,2,88,149,2.5
1702,EL TOREADOR FONDA MEXICANA RESTAURANT,El Toreador,el-toreador-san-francisco-2,37.74033,-122.466412,37.74032168,-122.4664061,twinpeaks,2,$11.00 ,mexican,2,77.5,741,3.5
1703,LANNA RESTAURANT,Lanna Thai Restaurant,lanna-thai-restaurant-san-francisco,37.754153,-122.477279,37.75406,-122.47728,sunset,1,$0.00 ,thai,3,93.33,141,3.5
1710,EMPORIO RULLI IL CAFFE AT UNION SQUARE,Emporio Rulli,emporio-rulli-larkspur,37.787936,-122.406712,37.935364,-122.53522,downtown,2,$11.00 ,bakeries,4,84.5,172,4
1712,SEA BREEZE CAFE,Sea Breeze Restaurant,sea-breeze-restaurant-san-francisco,37.760508,-122.504572,37.760589,-122.5045493,sunset,2,$11.00 ,coffeetea,4,89.75,381,3.5
1724,CAFE MUMS,Mums Home of Shabu Shabu,mums-home-of-shabu-shabu-san-francisco-2,37.786498,-122.430283,37.78679,-122.43032,pacificheights,2,$11.00 ,japanese,3,88.33,741,3.5
1726,KFC/TACO BELL,Taco Bell,taco-bell-san-francisco-7,37.728979,-122.431008,37.7289,-122.4311,excelsior,1,$0.00 ,fastfood,4,97.25,50,3
1727,SUN RISE RESTAURANT,Sun Rise Restaurant,sun-rise-restaurant-san-francisco-2,37.752508,-122.414681,37.75270081,-122.4147034,mission,1,$0.00 ,latinamerican,3,88,274,4
1734,SAI JAI THAI,Sai Jai Thai Restaurant,sai-jai-thai-restaurant-san-francisco,37.785182,-122.417409,37.78495,-122.41738,downtown,1,$0.00 ,thai,4,89,735,4
1741,OSHA THAI NOODLE CAFE,Osha Thai Restaurant,osha-thai-restaurant-san-francisco-7,37.786598,-122.414583,37.78660722,-122.4146341,nobhill,2,$11.00 ,thai,3,87,1489,3.5
1747,NARA SUSHI,Nara Sushi,nara-sushi-san-francisco,37.790716,-122.420779,37.7908143,-122.4208965,nobhill,2,$11.00 ,japanese,5,84,687,3.5
1753,RED BALLOON,Red Balloon,red-balloon-san-francisco-2,37.752923,-122.418505,37.75287576,-122.4184757,mission,2,$11.00 ,latinamerican,3,88.67,48,3
1764,FLORIO,Florio Bar & Cafe,florio-bar-and-cafe-san-francisco,37.787553,-122.433574,37.78751373,-122.4338226,pacificheights,3,$31.00 ,french,2,93.5,280,3.5
1768,SUBWAY SANDWICHES,Subway,subway-san-francisco-31,37.787783,-122.419737,37.78773777,-122.4199194,nobhill,1,$0.00 ,fastfood,5,91.6,30,2
1777,PETE'S DELI & CAFE,Pete's Deli & Cafe,petes-deli-and-cafe-san-francisco,37.785124,-122.439874,37.78508,-122.44007,pacificheights,1,$0.00 ,fastfood,3,86.67,135,4
1778,ACADEMY BAR & KITCHEN,Academy Bar & Kitchen,academy-bar-and-kitchen-san-francisco,37.786498,-122.430283,37.78616845,-122.4332231,pacificheights,2,$11.00 ,fastfood,2,92,44,4
1784,CAPANNINA,Capannina,capannina-san-francisco,37.797855,-122.429064,37.7977488,-122.4291735,marina,3,$31.00 ,italian,2,93,719,4
1791,GARDEN HOUSE CAFE,Garden House Cafe,garden-house-cafe-san-francisco,37.781597,-122.492544,37.78141,-122.49268,richmond,1,$0.00 ,coffeetea,3,91.33,212,4
1792,ATLAS CAFE,Atlas Cafe,atlas-cafe-san-francisco,37.759073,-122.411418,37.75895816,-122.4114397,mission,1,$0.00 ,fastfood,4,94.5,682,4
1796,PHILIPPINE DELICACIES,Philippine Delicacies,philippine-delicacies-san-francisco,37.711286,-122.446607,37.71116,-122.4464,excelsior,1,$0.00 ,grocery,3,83.67,11,3.5
1797,TIO CHILOS GRILL,Tio Chilo's Grill,tio-chilos-grill-san-francisco,37.752807,-122.409752,37.75298691,-122.4097672,mission,1,$0.00 ,mexican,4,82.25,38,4
1800,BRAVO PIZZA,Bravo Pizza,bravo-pizza-san-francisco,37.716583,-122.440834,37.716528,-122.440801,excelsior,2,$11.00 ,fastfood,3,88.67,327,4
1810,TAL-Y-TARA TEA & POLO SHOPPE,Tal-Y-Tara Tea & Polo Shoppe,tal-y-tara-tea-and-polo-shoppe-san-francisco,37.783773,-122.486779,37.78355789,-122.4867706,richmond,2,$11.00 ,coffeetea,3,91.33,234,4
1811,MOONLIGHT CAFE,Moonlight Cafe,moonlight-cafe-san-francisco,37.738923,-122.415293,37.73876,-122.4153,bernalheights,2,$11.00 ,coffeetea,4,97,168,3.5
1813,CESARIO,Cesario's,cesarios-san-francisco,37.788943,-122.410517,37.78869,-122.41048,downtown,2,$11.00 ,italian,3,93.67,200,3.5
1814,MARRIOTT HOTEL,San Francisco Marriott Marquis,san-francisco-marriott-marquis-san-francisco-4,37.784964,-122.404752,37.78509521,-122.4047775,downtown,2,$11.00 ,venue,2,100,2,4.5
1815,SF MARRIOTT HOTEL,San Francisco Marriott Marquis,san-francisco-marriott-marquis-san-francisco-2,37.784964,-122.404752,37.78489771,-122.4038507,downtown,3,$31.00 ,venue,3,89,663,3.5
1823,DAVE'S,Dave's,daves-san-francisco,37.78713,-122.402994,37.7871725,-122.4029882,downtown,1,$0.00 ,bars,3,92,336,4
1829,NOB HILL CAFE,Nob Hill Cafe,nob-hill-cafe-san-francisco,37.793238,-122.412746,37.7932599,-122.41262,nobhill,2,$11.00 ,italian,2,91,960,4
1830,SUSHI ON NORTH BEACH,Sushi On North Beach - Katsu,sushi-on-north-beach-katsu-san-francisco,37.801616,-122.412137,37.8015199,-122.41227,russianhill,2,$11.00 ,japanese,4,82.25,432,4
1831,B44,B44 Catalan Bistro,b44-catalan-bistro-san-francisco,37.791278,-122.403748,37.79131,-122.40363,financialdistrict,3,$31.00 ,european,2,90.5,901,3.5
1832,MURPHY'S,Murphy's Pub,murphys-pub-san-francisco,37.790125,-122.403924,37.79009,-122.40413,downtown,2,$11.00 ,bars,3,79.33,350,3
1833,ROGUE ALES PUBLIC HOUSE,Rogue Ales Public House,rogue-ales-public-house-san-francisco,37.800254,-122.410447,37.79999,-122.41041,russianhill,2,$11.00 ,bars,5,71,933,3.5
1836,THE OLD SHIP SALOON,The Old Ship Saloon,the-old-ship-saloon-san-francisco,37.797728,-122.400693,37.79782104,-122.4007263,financialdistrict,2,$11.00 ,bars,3,83.33,309,3.5
1837,CAFE BASTILLE,Cafe Bastille,cafe-bastille-san-francisco-2,37.791139,-122.403716,37.79115,-122.40366,financialdistrict,2,$11.00 ,french,3,85.33,632,3.5
1843,MA'S DIM SUM & CAFE,Ma's Dimsum & Cafe,mas-dimsum-and-cafe-san-francisco,37.796683,-122.410134,37.79665,-122.4103,nobhill,1,$0.00 ,chinese,3,64,41,3.5
1844,BASQUE HOTEL,Basque Hotel,basque-hotel-san-francisco,37.798244,-122.406324,37.79822,-122.40643,northbeach,2,$11.00 ,venue,2,91,10,4
1850,BATTERY STREET COFFEE ROASTERY,Battery Street Coffee Roastery,battery-street-coffee-roastery-san-francisco,37.800178,-122.401317,37.80022812,-122.4010239,northbeach,1,$0.00 ,fastfood,2,78.5,87,3
1852,PAT'S CAFE,Pat's Cafe,pats-cafe-san-francisco,37.803947,-122.414927,37.80402,-122.4146,northbeach,2,$11.00 ,coffeetea,3,92.67,462,4
1854,CAFE VENUE,Cafe Venue,cafe-venue-san-francisco-6,37.791148,-122.402262,37.79113881,-122.4022745,financialdistrict,1,$0.00 ,fastfood,3,90.33,369,4
1856,DILLER'S DELICATESSEN,Diller's Delicatessen,dillers-delicatessen-san-francisco,37.792059,-122.40178,37.79219818,-122.4018936,financialdistrict,1,$0.00 ,fastfood,3,88.33,114,3
1865,LATTE EXPRESS,Latte Express,latte-express-san-francisco-3,37.807244,-122.416434,37.80723073,-122.4164359,northbeach,1,$0.00 ,fastfood,5,93.4,9,3.5
1866,STARBUCKS COFFEE,Starbucks,starbucks-san-francisco-125,37.793693,-122.401194,37.79367015,-122.4012291,financialdistrict,1,$0.00 ,coffeetea,3,92,44,4
1867,ESCAPE FROM NEW YORK PIZZA,Escape From New York Pizza,escape-from-new-york-pizza-san-francisco,37.790844,-122.403168,37.79114485,-122.4029929,financialdistrict,1,$0.00 ,fastfood,3,92.33,228,3.5
1870,CAFE TIRAMISU,Cafe Tiramisu,cafe-tiramisu-san-francisco,37.791198,-122.403737,37.79111086,-122.4038769,financialdistrict,2,$11.00 ,italian,3,84.67,556,3.5
1880,PASQUALES,Pasquale's Pizza,pasquales-pizza-san-francisco,37.735568,-122.5027,37.73569489,-122.5027008,sunset,2,$11.00 ,fastfood,3,82.33,96,3
1882,SORABOL,Sorabol Korean Restaurant,sorabol-korean-restaurant-san-francisco,37.728497,-122.475639,37.7285614,-122.4768829,sunset,1,$0.00 ,korean,5,94.4,109,2
1894,MAI'S VIETNAMESE RESTAURANT,Mai's Vietnamese Restaurant,mais-vietnamese-restaurant-san-francisco,37.783048,-122.462641,37.78318,-122.46265,richmond,1,$0.00 ,vietnamese,2,95,261,4
1896,SIMPLE PLEASURES CAFE,Simple Pleasures Cafe,simple-pleasures-cafe-san-francisco,37.775818,-122.495802,37.77603,-122.49581,richmond,1,$0.00 ,bakeries,4,91.25,414,3.5
1900,CLEMENT STREET BAR & GRILL,Clement Street Bar & Grill,clement-street-bar-and-grill-san-francisco,37.782858,-122.466812,37.78305435,-122.4668427,richmond,2,$11.00 ,bars,2,96,229,3.5
1903,GEARY STREET BELLA PIZZA,Bella Pizza,bella-pizza-san-francisco,37.781148,-122.463672,37.78135,-122.46368,richmond,2,$11.00 ,fastfood,2,91,158,3.5
1912,CAFE BAKERY,Cafe Bakery & Restaurant,cafe-bakery-and-restaurant-san-francisco-2,37.754114,-122.47833,37.75410086,-122.4782065,sunset,2,$11.00 ,bakeries,4,75.5,411,3.5
1921,TARAVAL OKAZU YA,Taraval Okazu Ya Restaurant,taraval-okazu-ya-restaurant-san-francisco,37.742603,-122.484646,37.74239,-122.48486,sunset,2,$11.00 ,japanese,3,85.33,736,3.5
1922,ALLSTAR DONUTS,All Star Donuts,all-star-donuts-san-francisco-3,37.782694,-122.468969,37.78259,-122.46896,richmond,1,$0.00 ,fastfood,3,90,198,4
1927,STARBUCKS COFFEE,Starbucks,starbucks-san-francisco-239,37.775793,-122.446227,37.77566,-122.44621,haight,1,$0.00 ,coffeetea,3,98.67,87,3
1930,SUNRISE DELI,Sunrise Deli,sunrise-deli-san-francisco-6,37.763383,-122.48075,37.76315,-122.48075,sunset,1,$0.00 ,fastfood,3,83.33,461,4
1931,YUMMY YUMMY,Yummy Yummy,yummy-yummy-san-francisco,37.763913,-122.468809,37.76368332,-122.4687958,sunset,2,$11.00 ,vietnamese,2,86,1137,4
1932,FIVE HAPPINESS,Five Happiness,five-happiness-san-francisco,37.781138,-122.463931,37.78134,-122.46394,richmond,2,$11.00 ,chinese,3,92.33,218,3.5
1936,JITRA THAI CUISINE,Jitra Thai Cuisine,jitra-thai-cuisine-san-francisco-2,37.731515,-122.472953,37.73134613,-122.4730453,sunset,2,$11.00 ,thai,5,93.6,141,3
1939,STARBUCKS COFFEE,Starbucks,starbucks-san-francisco-146,37.787838,-122.400998,37.78765956,-122.4010339,financialdistrict,1,$0.00 ,coffeetea,3,95.33,103,3
1942,S.F. PIZZA,SF Pizza,sf-pizza-san-francisco,37.776604,-122.414319,37.7767319,-122.4143235,soma,1,$0.00 ,fastfood,2,86,76,2.5
1949,PLUTO'S,Pluto's,plutos-san-francisco-5,37.764083,-122.46471,37.764082,-122.464775,sunset,1,$0.00 ,fastfood,2,79,1058,4
1950,BULLSHEAD RESTAURANT,BullsHead Restaurant,bullshead-restaurant-san-francisco,37.740785,-122.465507,37.740951,-122.465413,twinpeaks,2,$11.00 ,american,2,83.5,683,4
1954,T C PASTRY,TC Pastry,tc-pastry-san-francisco,37.763388,-122.481892,37.7635999,-122.4819,sunset,1,$0.00 ,chinese,4,91,245,4
1959,EBISU RESTAURANT,Ebisu,ebisu-san-francisco,37.758941,-122.48591,37.76445472,-122.466417,sunset,2,$11.00 ,japanese,3,81,1495,4
1963,SPIAZZO,Spiazzo Ristorante,spiazzo-ristorante-san-francisco,37.740456,-122.466108,37.74035,-122.46588,twinpeaks,2,$11.00 ,italian,3,83.67,449,4
1968,AL-MASRI EGYPTIAN RESTAURANT,Al Masri,al-masri-san-francisco,37.775454,-122.502148,37.7752399,-122.50214,richmond,3,$31.00 ,middleeastern,2,86.5,210,3
1970,MICADO  RESTAURANT,Micado Restaurant,micado-restaurant-san-francisco,37.763468,-122.480646,37.76345506,-122.480715,sunset,2,$11.00 ,japanese,3,90.67,125,3.5
1972,KENTUCKY FRIED CHICKEN,KFC,kfc-san-francisco-18,37.781128,-122.464072,37.7812,-122.464,richmond,1,$0.00 ,fastfood,2,85,65,2.5
1973,MY FAVORITE CAFE,My Favorite Cafe,my-favorite-cafe-san-francisco,37.782169,-122.481942,37.78239822,-122.4819565,richmond,1,$0.00 ,coffeetea,3,91.33,307,3.5
1977,BURMA SUPERSTAR RESTAURANT,Burma Superstar,burma-superstar-san-francisco-2,37.783004,-122.462539,37.78278732,-122.4625397,richmond,2,$11.00 ,asian,2,90.5,5715,4
1978,GOLDEN CHARIOT BAKERY & REST,Golden Chariot Bakery & Restaurant,golden-chariot-bakery-and-restaurant-san-francisco,37.775878,-122.494382,37.77609634,-122.4944,richmond,1,$0.00 ,chinese,4,80.5,76,3.5
1991,SRI THAI CUISINE,Sri Thai Cuisine,sri-thai-cuisine-san-francisco,37.764073,-122.507779,37.76383209,-122.5077744,sunset,2,$11.00 ,thai,3,89,339,4
1992,GENEVA STEAK HOUSE,Geneva Steak,geneva-steak-san-francisco,37.716242,-122.441183,37.71643448,-122.4414139,mission,2,$11.00 ,american,3,82.33,77,3.5
1994,EL POLLO SUPREMO,El Pollo Supremo,el-pollo-supremo-san-francisco-5,37.715469,-122.441846,37.71561,-122.44202,mission,1,$0.00 ,mexican,4,92,173,4
2002,PANDA EXPRESS,Panda Express,panda-express-san-francisco,37.728497,-122.475639,37.7285614,-122.4768829,sunset,1,$0.00 ,chinese,5,100,57,2.5
2004,ELAINE'S KITCHEN,Elaine's Kitchen,elaines-kitchen-san-francisco-3,37.798178,-122.404484,37.7982972,-122.4045086,northbeach,1,$0.00 ,chinese,3,71.67,168,4
2007,BOCADILLOS,Bocadillos,bocadillos-san-francisco,37.795893,-122.403277,37.795831,-122.403234,financialdistrict,2,$11.00 ,european,2,95,1010,4
2012,"CHEESE STEAK SHOP, THE",The Cheese Steak Shop,the-cheese-steak-shop-san-francisco,37.785537,-122.439887,37.78557968,-122.4396362,pacificheights,1,$0.00 ,fastfood,3,90.33,810,4
2016,EXTREME  PIZZA,Extreme Pizza - Fillmore District,extreme-pizza-fillmore-district-san-francisco,37.785657,-122.433147,37.78569,-122.43294,pacificheights,2,$11.00 ,fastfood,3,93,303,3
2017,THE GROVE FILLMORE,The Grove Fillmore,the-grove-fillmore-san-francisco,37.788147,-122.433637,37.78821319,-122.4336234,pacificheights,2,$11.00 ,fastfood,2,93,1304,3.5
2020,MONROE RESIDENCE CLUB,Monroe Residence Club,monroe-residence-club-san-francisco-2,37.791178,-122.423703,37.79140854,-122.4237442,pacificheights,2,$11.00 ,venue,2,94,13,3
2027,SANPPO RESTAURANT,Sanppo Restaurant,sanppo-restaurant-san-francisco,37.785567,-122.430074,37.78575,-122.4301,pacificheights,2,$11.00 ,japanese,3,80.33,284,2.5
2031,KENMORE RESIDENCE CLUB,Kenmore Res Club,kenmore-res-club-san-francisco,37.787017,-122.426234,37.78726196,-122.4262772,pacificheights,1,$0.00 ,venue,2,90,5,2.5
2032,QUEEN ANNE HOTEL,Queen Anne Hotel,queen-anne-hotel-san-francisco,37.786988,-122.426464,37.787231,-122.426513,pacificheights,2,$11.00 ,venue,2,90,116,4
2035,ISUMIYA,Izumiya,izumiya-san-francisco,37.785227,-122.431472,37.7852337,-122.4315788,pacificheights,2,$11.00 ,japanese,3,80.67,453,3
2039,VIA VENETO,Via Veneto,via-veneto-san-francisco,37.790437,-122.434097,37.79047775,-122.433876,pacificheights,2,$11.00 ,italian,3,91.67,198,3.5
2040,KOJI OSAKA YA,Osakaya Restaurant,osakaya-restaurant-san-francisco,37.785457,-122.430317,37.785354,-122.4303915,pacificheights,2,$11.00 ,japanese,4,81,457,3
2044,JOANIE'S DINER INC.,Joanie's Happy Days Diner,joanies-happy-days-diner-san-francisco,37.806546,-122.419277,37.806385,-122.419403,russianhill,2,$11.00 ,american,3,73.67,279,4
2047,CHESTNUT DINER,Chestnut Diner,chestnut-diner-san-francisco,37.802247,-122.425093,37.8024,-122.42511,marina,1,$0.00 ,american,3,94,84,3.5
2048,ESPRESSO ROMA CAFE,Espresso Roma Cafe,espresso-roma-cafe-san-francisco,37.798557,-122.435767,37.79866979,-122.4357679,marina,1,$0.00 ,coffeetea,3,89,101,3.5
2050,"HYDE STREET SEAFOOD HOUSE & RAW BAR, INC",Hyde Street Seafood House and Raw Bar,hyde-street-seafood-house-and-raw-bar-san-francisco,37.794753,-122.418184,37.79471,-122.41835,nobhill,2,$11.00 ,seafood,2,88,724,3.5
2051,COCOTTE,Cocotte,cocotte-san-francisco,37.794753,-122.418184,37.79487111,-122.4182329,nobhill,3,$31.00 ,french,2,97,356,4
2053,ZA,Za Pizza,za-pizza-san-francisco,37.798553,-122.418964,37.798883,-122.419134,russianhill,1,$0.00 ,fastfood,4,87.75,940,4
2054,ZARZUELA,Zarzuela,zarzuela-san-francisco,37.799368,-122.419047,37.7994,-122.41888,russianhill,2,$11.00 ,european,2,89.5,964,4
2055,SUN KWONG RESTAURANT,Sun Kwong Restaurant,sun-kwong-restaurant-san-francisco,37.794558,-122.418334,37.7945821,-122.4182906,nobhill,1,$0.00 ,chinese,4,88.25,137,4
2057,AMARENA,Amarena,amarena-san-francisco,37.797713,-122.420353,37.7976935,-122.4202447,russianhill,2,$11.00 ,italian,4,88,470,4
2060,CAFE LOMBARD,Cafe Lombard,cafe-lombard-san-francisco,37.801268,-122.425154,37.80155182,-122.4251938,marina,2,$11.00 ,american,2,89,54,3
2061,ATAMI SUSHI BAR & GRILL,Atami Sushi Bar & Grill,atami-sushi-bar-and-grill-san-francisco,37.800788,-122.428894,37.80107,-122.42894,marina,2,$11.00 ,japanese,2,94,222,4
2063,ZUSHI-PUZZLE,Zushi Puzzle,zushi-puzzle-san-francisco-2,37.800248,-122.433053,37.80052,-122.43308,marina,3,$31.00 ,japanese,2,83,1259,4
2066,THAI SPICE RESTAURANT,Thai Spice Restaurant,thai-spice-restaurant-san-francisco,37.792677,-122.421036,37.79282,-122.42084,nobhill,2,$11.00 ,thai,3,83.67,502,3.5
2070,STREET RESTAURANT,Street Restaurant,street-restaurant-san-francisco,37.796327,-122.421911,37.7964394,-122.4220352,russianhill,2,$11.00 ,american,2,86,572,4
2072,STARBUCKS COFFEE,Starbucks,starbucks-san-francisco-240,37.796527,-122.421953,37.79672623,-122.4222183,russianhill,1,$0.00 ,coffeetea,4,94,105,3
2077,PEET'S COFFEE & TEA,Peet's Coffee,peets-coffee-san-francisco-26,37.796316,-122.421909,37.796492,-122.422077,russianhill,1,$0.00 ,coffeetea,3,94.67,76,4
2085,KENTUCKY FRIED CHICKEN,KFC,kfc-san-francisco-7,37.783053,-122.418988,37.783,-122.419,downtown,1,$0.00 ,fastfood,2,83,57,2.5
2094,CARL'S JUNIOR,Carl's Jr.,carls-jr-san-francisco-3,37.783658,-122.408568,37.78372251,-122.4085709,downtown,1,$0.00 ,fastfood,3,92.33,96,2
2104,OLYMPIC FLAME CAFE,Olympic Flame Cafe,olympic-flame-cafe-san-francisco,37.786803,-122.412467,37.78676614,-122.4126419,downtown,1,$0.00 ,coffeetea,3,82,151,3
2106,ORIGINAL PERFECT HAMBURGER,Original Perfect Hamburger,original-perfect-hamburger-san-francisco,37.786693,-122.413367,37.78652,-122.41334,downtown,1,$0.00 ,fastfood,3,86,78,3
2107,KIM THANH RESTAURANT,Kim Thanh Restaurant,kim-thanh-restaurant-san-francisco,37.786683,-122.413274,37.7865732,-122.4133918,downtown,2,$11.00 ,chinese,3,87.33,462,4
2109,ANH HONG PHU-NHUAN RESTAURANT,Anh Hong Restaurant,anh-hong-restaurant-san-francisco,37.786354,-122.416628,37.7864093,-122.4167522,nobhill,2,$11.00 ,vietnamese,3,80.67,482,4
2110,A LA TURCA,A La Turca Restaurant,a-la-turca-restaurant-san-francisco,37.786143,-122.417617,37.7859726,-122.4175949,downtown,2,$11.00 ,middleeastern,2,88,657,4
2115,LITTLE HENRY'S RESTAURANT,Little Henry's,little-henrys-san-francisco,37.786751,-122.418287,37.7867407,-122.4183891,nobhill,1,$0.00 ,italian,4,78.25,175,3.5
2117,SAKANA,Sakana Sushi & Grill,sakana-sushi-and-grill-san-francisco,37.787798,-122.411772,37.7876998,-122.4118891,nobhill,2,$11.00 ,japanese,3,98,580,3.5
2124,RUTH'S CHRIS STEAK HOUSE,Ruth's Chris Steak House,ruths-chris-steak-house-san-francisco,37.790298,-122.423034,37.79088146,-122.4221939,nobhill,3,$31.00 ,american,2,96,1751,4
2127,NOAH'S BAGELS,Noah's Bagels,noahs-bagels-san-francisco-9,37.800653,-122.437386,37.80037308,-122.4373322,marina,1,$0.00 ,bakeries,3,90,125,2.5
2131,DRAGON WELL,Dragon Well,dragon-well-san-francisco,37.800528,-122.438664,37.80072,-122.43868,marina,2,$11.00 ,chinese,4,94.25,427,3.5
2132,B & M MEI SING RESTAURANT,B & M Mei Sing Restaurant,b-and-m-mei-sing-restaurant-san-francisco,37.788453,-122.400466,37.7883959,-122.4005327,financialdistrict,1,$0.00 ,chinese,1,96,228,3
2134,"CHIEFTAIN IRISH PUB, THE",The Chieftain Irish Pub & Restaurant,the-chieftain-irish-pub-and-restaurant-san-francisco,37.781567,-122.405059,37.7814788,-122.4051366,soma,2,$11.00 ,european,2,89.5,701,4
2136,STARBUCKS COFFEE,Starbucks,starbucks-san-francisco-136,37.739514,-122.46733,37.73968,-122.46747,twinpeaks,1,$0.00 ,coffeetea,3,95.33,130,3.5
2138,BOUDIN BAKERY,Boudin Bakery & Cafe,boudin-bakery-and-cafe-san-francisco-13,37.788924,-122.401701,37.78884712,-122.401741,financialdistrict,1,$0.00 ,fastfood,1,92,496,3.5
2143,THE BITTER END,The Bitter End,the-bitter-end-san-francisco,37.782933,-122.46408,37.78282,-122.46408,richmond,1,$0.00 ,bars,2,88,405,4
2144,SHERA.-PAL.HOTEL MAXFIELD'S GRILL,Palace Hotel,palace-hotel-san-francisco,37.788286,-122.401543,37.78825733,-122.4017068,financialdistrict,3,$31.00 ,venue,3,91,837,3.5
2145,FRINGALE,Fringale,fringale-san-francisco,37.778657,-122.397009,37.77857,-122.39714,soma,3,$31.00 ,french,2,89,987,4
2152,HARD KNOX CAFE,Hard Knox Cafe,hard-knox-cafe-san-francisco,37.757555,-122.388443,37.75752,-122.38858,potrerohill,2,$11.00 ,american,3,85.33,1832,4
2156,GOAT HILL PIZZA,Goat Hill Pizza,goat-hill-pizza-san-francisco,37.762367,-122.397515,37.762471,-122.397658,potrerohill,2,$11.00 ,fastfood,3,83.33,1141,4
2165,CAFFE SAPORE,Caffe Sapore,caffe-sapore-san-francisco,37.802687,-122.414304,37.80287,-122.41455,russianhill,1,$0.00 ,fastfood,4,91.5,222,4
2168,CAFE FRANCISCO,Cafe Francisco,cafe-francisco-san-francisco-2,37.804519,-122.411754,37.8046999,-122.41199,northbeach,1,$0.00 ,coffeetea,3,91.67,210,3.5
2172,MAMAS ON WASHINGTON SQUARE,Mama's On Washington Square,mamas-on-washington-square-san-francisco,37.801554,-122.409434,37.801606,-122.409599,northbeach,2,$11.00 ,coffeetea,2,85,3433,4
2175,ACQUERELLO,Acquerello,acquerello-san-francisco,37.791507,-122.421257,37.79157,-122.4213296,nobhill,4,$61.00 ,italian,3,98.67,882,4.5
2189,PRINCESS BAKERY,Princess Bakery,princess-bakery-san-francisco,37.724422,-122.434985,37.72428894,-122.434761,excelsior,1,$0.00 ,bakeries,4,80,35,4
2193,NEW CITY BAKERY,New City Bakery,new-city-bakery-san-francisco,37.730463,-122.40476,37.730541,-122.404533,excelsior,1,$0.00 ,bakeries,4,88.5,31,3.5
2199,PANTA REI,Panta Rei Restaurant,panta-rei-restaurant-san-francisco,37.798918,-122.408291,37.7990091,-122.4085804,russianhill,2,$11.00 ,italian,2,85,804,3.5
2216,HONG KONG CLAY POT CITY RESTAURANT,Hong Kong Clay Pot Restaurant,hong-kong-clay-pot-restaurant-san-francisco,37.795868,-122.406557,37.7958799,-122.40649,chinatown,2,$11.00 ,chinese,4,86,610,4
2218,STARBUCKS COFFEE,Starbucks,starbucks-san-francisco-98,37.79703,-122.398284,37.79699992,-122.3982574,financialdistrict,2,$11.00 ,coffeetea,3,100,40,3
2219,CHUNG KING RESTAURANT,Chung King,chung-king-san-francisco,37.796259,-122.40529,37.7963159,-122.4053847,chinatown,1,$0.00 ,chinese,4,85.5,142,3.5
2223,GARDEN BAKERY,Garden Bakery,garden-bakery-san-francisco,37.795835,-122.407828,37.7957247,-122.4079616,chinatown,1,$0.00 ,bakeries,3,78.67,91,4
2226,PALIO PANINOTECA,Palio Caffe,palio-caffe-san-francisco-3,37.793841,-122.402947,37.7938693,-122.4033285,financialdistrict,1,$0.00 ,italian,2,98,107,2.5
2228,TOKYO EXPRESS,Tokyo Express Restaurant,tokyo-express-restaurant-san-francisco,37.793698,-122.403984,37.79388,-122.404,financialdistrict,2,$11.00 ,japanese,3,96,212,3.5
2233,THE AA BAKERY & CAFE,The AA Bakery & Cafe,the-aa-bakery-and-cafe-san-francisco,37.795564,-122.40809,37.79568,-122.40796,chinatown,1,$0.00 ,bakeries,4,73.25,294,4
2234,KAM LOK RESTAURANT,Kam Lok Restaurant,kam-lok-restaurant-san-francisco,37.795118,-122.407083,37.79523849,-122.4071045,chinatown,1,$0.00 ,chinese,3,72.67,100,3.5
2240,LE REGENCY,Le Regency,le-regency-san-francisco,37.793687,-122.396592,37.7937413,-122.3967312,financialdistrict,1,$0.00 ,venue,3,83.33,108,3.5
2243,CAFE CLAUDE,Cafe Claude,cafe-claude-san-francisco,37.789857,-122.404302,37.7901535,-122.4043737,downtown,3,$31.00 ,french,3,91,1754,4
2244,STARBUCKS COFFEE,Starbucks,starbucks-san-francisco-104,37.793225,-122.399899,37.79313159,-122.3997766,financialdistrict,1,$0.00 ,coffeetea,4,94,48,3.5
2245,STARBUCKS COFFEE,Starbucks,starbucks-san-francisco-121,37.790498,-122.403896,37.7906017,-122.4039368,downtown,1,$0.00 ,coffeetea,5,92.8,69,3.5
2249,RAMZI'S CAFE,Ramzi's Cafe & Catering,ramzis-cafe-and-catering-san-francisco,37.789552,-122.401999,37.789711,-122.4019699,financialdistrict,1,$0.00 ,venue,3,89.67,42,3.5
2256,BLUE DANUBE COFFEE HOUSE,Blue Danube Coffee House,blue-danube-coffee-house-san-francisco,37.783058,-122.462502,37.78323,-122.46251,richmond,1,$0.00 ,coffeetea,2,86,647,4
2261,RITZ-CARLTON HOTEL,"The Ritz-Carlton, San Francisco",the-ritz-carlton-san-francisco-san-francisco-2,37.791757,-122.407377,37.79184341,-122.4068298,chinatown,4,$61.00 ,venue,4,94.5,357,4
2262,RITZ-CARLTON HOTEL,"The Ritz-Carlton, San Francisco",the-ritz-carlton-san-francisco-san-francisco-2,37.791757,-122.407377,37.79184341,-122.4068298,chinatown,4,$61.00 ,venue,4,94.25,357,4
2263,TAIWAN RESTAURANT,Taiwan Restaurant,taiwan-restaurant-san-francisco-3,37.782933,-122.464089,37.7828686,-122.4641453,richmond,1,$0.00 ,chinese,3,77.33,371,3.5
2266,ALI BABA'S CAVE RESTAURANT,Ali Baba's Cave,ali-babas-cave-san-francisco,37.760164,-122.421334,37.7602469,-122.4212407,mission,1,$0.00 ,fastfood,4,90,485,3.5
2268,TIN FISH AT EAGLE CAFE,Eagle Cafe,eagle-cafe-san-francisco,37.80824,-122.410189,37.80870321,-122.410301,northbeach,2,$11.00 ,american,5,91.2,546,3.5
2274,LA MEDITERRANEE,La Mediterranee,la-mediterranee-san-francisco-7,37.764489,-122.433195,37.76450698,-122.4332974,castro,2,$11.00 ,middleeastern,3,91.33,508,4
2279,GOLDEN DONUT,The Golden Donut,the-golden-donut-san-francisco,37.780353,-122.477399,37.78033488,-122.4774092,richmond,1,$0.00 ,fastfood,5,95.6,80,4
2280,SAKANA BUNE RESTAURANT,Sakana Bune Japanese Restaurant,sakana-bune-japanese-restaurant-san-francisco,37.780204,-122.480599,37.77997,-122.48059,richmond,2,$11.00 ,japanese,4,81.25,550,3.5
2282,PACIFIC CAFE,Pacific Cafe,pacific-cafe-san-francisco,37.779668,-122.494562,37.77994,-122.49457,richmond,2,$11.00 ,seafood,2,90.5,621,4
2292,ORIENTAL SEAFOOD RESTAURANT,Oriental Seafood Restaurant,oriental-seafood-restaurant-san-francisco,37.753638,-122.490712,37.75383759,-122.4907227,sunset,1,$0.00 ,chinese,2,78.5,127,3
2293,GOLD MIRROR ITALIAN RESTAURANT,Gold Mirror Italian Restaurant,gold-mirror-italian-restaurant-san-francisco,37.743118,-122.474802,37.74330521,-122.474823,sunset,2,$11.00 ,italian,2,100,213,3.5
2299,STARBUCKS COFFEE,Starbucks,starbucks-san-francisco-249,37.788476,-122.422099,37.788557,-122.4222255,pacificheights,1,$0.00 ,coffeetea,3,97.33,81,3
2305,TIA MARGARITA INC,Tia Margarita Mexican Restaurant,tia-margarita-mexican-restaurant-san-francisco,37.782124,-122.478425,37.78217952,-122.4782934,richmond,2,$11.00 ,mexican,3,90.67,551,3.5
2309,BURGER KING,Burger King,burger-king-san-francisco-5,37.72169,-122.437135,37.72169613,-122.4373475,mission,1,$0.00 ,fastfood,3,92,22,1.5
2315,TAQUERIA CAN-CUN,Taqueria Cancun,taqueria-cancun-san-francisco-5,37.760487,-122.419285,37.76047,-122.41951,mission,1,$0.00 ,mexican,4,91.5,1887,4
2317,BURGER JOINT,Burger Joint,burger-joint-san-francisco-2,37.759933,-122.421356,37.75991656,-122.4213269,mission,2,$11.00 ,fastfood,5,95.4,240,3.5
2318,GARCON,Garcon,garcon-san-francisco-3,37.755291,-122.420898,37.7551632,-122.4207784,mission,3,$31.00 ,french,3,93.33,744,3.5
2323,BLUE FRONT DELI,Blue Front Cafe,blue-front-cafe-san-francisco,37.770147,-122.446044,37.77025,-122.44607,haight,2,$11.00 ,middleeastern,3,81.33,641,4
2325,THE CITRUS CLUB,The Citrus Club,the-citrus-club-san-francisco,37.769428,-122.451604,37.76964,-122.45162,haight,2,$11.00 ,asian,3,71.67,1217,3.5
2326,IRMA'S PAMPANGA RESTAURANT,Irma's Pampanga Restaurant,irmas-pampanga-restaurant-san-francisco,37.765123,-122.417919,37.76493073,-122.4179077,mission,1,$0.00 ,asian,4,72.5,121,3.5
2331,JADE CAFE,Jade Cafe,jade-cafe-san-francisco-2,37.765755,-122.410601,37.76580535,-122.4105933,mission,1,$0.00 ,chinese,2,73.5,219,3
2334,LA PAZ RESTAURANT,La Paz Restaurant Pupuseria,la-paz-restaurant-pupuseria-san-francisco,37.755693,-122.40665,37.7556396,-122.4067429,mission,1,$0.00 ,mexican,3,84,74,4
2335,VELVET CANTINA,Velvet Cantina,velvet-cantina-san-francisco,37.753743,-122.419479,37.753802,-122.419701,mission,2,$11.00 ,mexican,2,95,1090,4
2336,RISTORANTE TI PIACERA,Ti Piacera,ti-piacera-san-francisco-4,37.790645,-122.420765,37.7907291,-122.4208785,nobhill,2,$11.00 ,italian,5,88.4,300,3.5
2337,EL TACO LOCO INC.,El Taco Loco The Original,el-taco-loco-the-original-san-francisco,37.752308,-122.417881,37.7523918,-122.4178925,mission,1,$0.00 ,mexican,4,87.25,99,4
2343,GRAND MISSION DONUT & BAKERY,Grand Mission Donuts & Bakery,grand-mission-donuts-and-bakery-san-francisco,37.761929,-122.419308,37.76202075,-122.4193313,mission,1,$0.00 ,fastfood,4,99,58,4
2346,LAWRENCE BAKERY CAFE,Lawrence Bakery Cafe,lawrence-bakery-cafe-san-francisco,37.760477,-122.419275,37.76047,-122.41951,mission,1,$0.00 ,bakeries,4,96.5,9,4.5
2347,LAS TINAJAS,Las Tinajas Restaurant,las-tinajas-restaurant-san-francisco,37.759567,-122.419185,37.75955963,-122.4194412,mission,2,$11.00 ,latinamerican,4,91.75,143,4
2352,SMILE'S  B.B.Q.,Smile BBQ,smile-bbq-san-francisco,37.755013,-122.418665,37.75502,-122.41852,mission,1,$0.00 ,american,4,94.5,35,3
2356,TAQUERIA EL FAROLITO,El Farolito,el-farolito-san-francisco-2,37.752634,-122.418486,37.752654,-122.4181915,mission,1,$0.00 ,mexican,5,88.6,3925,4
2358,TAQUERIA SAN JOSE,Taqueria San Jose,taqueria-san-jose-san-francisco,37.751687,-122.418455,37.75171302,-122.4184817,mission,1,$0.00 ,mexican,4,87.5,274,3.5
2359,LA TRAVIATA,La Traviata,la-traviata-san-francisco,37.751296,-122.418414,37.75126,-122.41869,mission,2,$11.00 ,italian,1,90,455,4
2360,LA TAQUERIA,La Taqueria,la-taqueria-san-francisco-2,37.750855,-122.418286,37.750883,-122.418123,mission,1,$0.00 ,mexican,3,86.33,2707,4
2369,CLOONEY'S,Clooney's Pub,clooneys-pub-san-francisco,37.750374,-122.420456,37.7503891,-122.4201508,mission,1,$0.00 ,bars,3,90,73,3.5
2374,BEAN BAG COFFEE HOUSE,Bean Bag Cafe,bean-bag-cafe-san-francisco,37.775184,-122.437864,37.7750101,-122.4378421,haight,1,$0.00 ,coffeetea,3,82,741,4
2384,TWO JACKS SEAFOOD,Two Jacks Seafood,two-jacks-seafood-san-francisco-3,37.772274,-122.428997,37.77212143,-122.428978,haight,1,$0.00 ,seafood,3,89.67,62,3.5
2385,CAFE INTERNATIONAL,Cafe International,cafe-international-san-francisco,37.772097,-122.430814,37.7721253,-122.4307354,haight,1,$0.00 ,coffeetea,3,96,357,4
2387,MEMPHIS MINNIE'S BBQ JOINT,Memphis Minnie's,memphis-minnies-san-francisco,37.771978,-122.431654,37.77218,-122.43169,haight,2,$11.00 ,american,2,85.5,1451,3.5
2397,PLOY,Ploy II,ploy-ii-san-francisco,37.769458,-122.451354,37.76972,-122.45138,haight,2,$11.00 ,thai,2,69.5,599,4
2401,FLIPPERS GOURMET BURGERS,"Flipper's, A Gourmet Hamburger Place",flippers-a-gourmet-hamburger-place-san-francisco,37.779847,-122.418985,37.7769165,-122.4243546,westernaddition,2,$11.00 ,american,2,80,805,3
2406,THEP-PHANON RESTAURANT,Thep Phanom Thai Restaurant,thep-phanom-thai-restaurant-san-francisco-2,37.77124,-122.430299,37.7713922,-122.4304127,haight,2,$11.00 ,thai,1,76,409,3.5
2407,BUTTER,Butter,butter-san-francisco,37.771168,-122.413179,37.771019,-122.413343,soma,1,$0.00 ,bars,2,87,1095,4
2409,MISSION HUNAN RESTAURANT,Mission Hunan Restaurant,mission-hunan-restaurant-san-francisco,37.765142,-122.419026,37.7652076,-122.4190561,mission,1,$0.00 ,chinese,3,96,81,3.5
2418,MANIVANH THAI RESTAURANT,Manivanh Thai Restaurant,manivanh-thai-restaurant-san-francisco,37.752968,-122.407062,37.75307,-122.40707,mission,2,$11.00 ,thai,4,84.5,200,4
2420,TAQUERIA SAN FRANCISCO,Taqueria San Francisco,taqueria-san-francisco-san-francisco,37.752908,-122.408013,37.75309,-122.40802,mission,1,$0.00 ,mexican,5,91.4,201,4
2421,ST FRANCIS FOUNTAIN,St. Francis Fountain,st-francis-fountain-san-francisco,37.752833,-122.408349,37.7526474,-122.4083405,mission,2,$11.00 ,desserts,4,78.75,1043,4
2426,BOOGALOOS,Boogaloos,boogaloos-san-francisco,37.755357,-122.420652,37.75548,-122.42068,mission,2,$11.00 ,american,2,94,1039,4
2427,TAQUERIA EL FAROLITO,El Farolito,el-farolito-san-francisco-4,37.752728,-122.411122,37.75285,-122.41113,mission,1,$0.00 ,mexican,4,83.75,714,4
2428,LA GALLINITA,Belmar - La Gallinita Meat Market,belmar-la-gallinita-meat-market-san-francisco,37.752634,-122.411658,37.75261424,-122.4116615,mission,1,$0.00 ,mexican,3,78.67,52,4.5
2433,PUERTO ALEGRE NO. 2,Puerto Alegre Restaurant No 2,puerto-alegre-restaurant-no-2-san-francisco,37.751208,-122.409162,37.75137711,-122.4091797,mission,1,$0.00 ,mexican,3,98,15,3.5
2437,MANORA'S THAI CUISINE,Manora's Thai Cuisine,manoras-thai-cuisine-san-francisco,37.770748,-122.415137,37.77084,-122.41528,soma,2,$11.00 ,thai,2,77,510,4
2447,NEW CASTILLITO INC.,El Castillito,el-castillito-san-francisco,37.76356,-122.419582,37.7636236,-122.4196886,mission,1,$0.00 ,mexican,3,100,172,4
2453,KENNY'S RESTAURANT,Kenny's Restaurant,kennys-restaurant-san-francisco,37.764851,-122.417529,37.7648643,-122.4176253,mission,1,$0.00 ,american,2,81.5,28,4
2455,MUDDY WATERS,Muddy Waters Coffee House,muddy-waters-coffee-house-san-francisco,37.764484,-122.421815,37.7645,-122.42158,mission,1,$0.00 ,coffeetea,4,98,254,3
2469,OKOZE SUSHI,Okoze Sushi,okoze-sushi-san-francisco,37.799143,-122.419317,37.79899,-122.41929,russianhill,3,$31.00 ,japanese,2,95,576,4
2472,STARBUCKS COFFEE,Starbucks,starbucks-san-francisco-169,37.783505,-122.432784,37.80641668,-122.4146676,westernaddition,1,$0.00 ,coffeetea,3,98.67,3,2
2475,FATTOUSH RESTAURANT,Fattoush,fattoush-san-francisco,37.749015,-122.427165,37.74905396,-122.4268646,noevalley,2,$11.00 ,middleeastern,2,92.5,625,4
2483,CAFE UNION,Caffe Union,caffe-union-san-francisco,37.797878,-122.429504,37.79798,-122.42952,marina,2,$11.00 ,coffeetea,3,96,174,3.5
2495,STARBUCK'S COFFEE,Starbucks,starbucks-san-francisco-213,37.790157,-122.434037,37.7902,-122.43382,pacificheights,1,$0.00 ,coffeetea,3,94.33,81,3
2501,POSH BAGEL,The Posh Bagel,the-posh-bagel-san-francisco-4,37.789718,-122.404974,37.7899148,-122.405049,downtown,1,$0.00 ,bakeries,3,92,296,3.5
2505,AMERICANA GRILL & FOUNTAIN,Americana Grill,americana-grill-san-francisco-11,37.775806,-122.496608,37.776211,-122.496882,richmond,2,$11.00 ,american,5,92.8,398,3.5
2507,ALEGRIAS,Alegrias,alegrias-san-francisco,37.800048,-122.434714,37.80027,-122.43481,marina,2,$11.00 ,european,2,96,666,4
2517,NOAH'S NEW YORK BAGELS,Noah's Bagels,noahs-bagels-san-francisco-7,37.790124,-122.434104,37.79007339,-122.4343567,pacificheights,1,$0.00 ,bakeries,3,87.67,144,2
2519,PACIFIC PLAZA CAFE,Pacific Plaza Cafe,pacific-plaza-cafe-san-francisco,37.786864,-122.423218,37.78673127,-122.4232057,pacificheights,1,$0.00 ,fastfood,3,89.33,97,4.5
2521,LOVEJOY'S TEAROOM & ANTIQUES,Lovejoy's Tea Room,lovejoys-tea-room-san-francisco,37.749154,-122.427176,37.74919128,-122.4268951,noevalley,2,$11.00 ,european,2,94,987,4.5
2523,VENICE PIZZA AND RESTAURANT,Venice Pizza,venice-pizza-san-francisco,37.715315,-122.442007,37.715313,-122.4421183,mission,2,$11.00 ,fastfood,4,96.75,49,3
2535,PEET'S COFFEE & TEA,Peet's Coffee,peets-coffee-san-francisco-23,37.789787,-122.434067,37.78971327,-122.4341651,pacificheights,1,$0.00 ,coffeetea,3,89.33,149,4
2538,KATES KITCHEN,Kate's Kitchen,kates-kitchen-san-francisco,37.772163,-122.429927,37.77189255,-122.4298782,haight,2,$11.00 ,coffeetea,2,89.5,741,3.5
2542,PETER D'S RESTAURANT,Peter D's,peter-ds-san-francisco,37.795993,-122.423585,37.79591751,-122.4239044,pacificheights,2,$11.00 ,coffeetea,4,85,154,3.5
2544,EMPEROR PALACE RESTAURANT,Emperor Palace Restaurant,emperor-palace-restaurant-san-francisco,37.777253,-122.464359,37.77723625,-122.4644152,richmond,1,$0.00 ,chinese,3,73.67,117,3.5
2548,NOAH'S NEW YORK BAGELS,Noah's Bagels,noahs-bagels-san-francisco-8,37.786564,-122.451887,37.7862,-122.45184,richmond,1,$0.00 ,bakeries,3,94.67,139,3
2549,THAI CAFE,Thai Cafe,thai-cafe-san-francisco,37.781304,-122.455582,37.781205,-122.455499,richmond,2,$11.00 ,thai,2,92,182,3.5
2553,ITS TOPS COFFEE SHOP,It's Tops Coffee Shop,its-tops-coffee-shop-san-francisco,37.771497,-122.423802,37.7714306,-122.4236388,mission,2,$11.00 ,coffeetea,4,93.75,418,3.5
2555,EXTREME PIZZA,Extreme Pizza - Marina District,extreme-pizza-marina-district-san-francisco,37.797578,-122.431883,37.7977599,-122.43191,marina,1,$0.00 ,fastfood,3,85.67,221,3
2559,HAI'S RESTAURANT,Hai's Restaurant,hais-restaurant-san-francisco,37.782953,-122.415804,37.78291,-122.41611,downtown,1,$0.00 ,chinese,2,81.5,50,4
2561,ANANDA FUARA,Ananda Fuara,ananda-fuara-san-francisco,37.777824,-122.415969,37.77798,-122.4162,downtown,2,$11.00 ,vegetarian,2,83,873,4
2578,STARBUCKS COFFEE,Starbucks,starbucks-san-francisco-169,37.802545,-122.401864,37.80641668,-122.4146676,northbeach,1,$0.00 ,coffeetea,2,92.5,3,2
2579,SB40/CARMENS RESTAURANT,SB40,sb40-san-francisco-2,37.78162,-122.387677,37.78197427,-122.387875,northbeach,2,$11.00 ,bars,2,94,179,3
2580,CAFE MARS,Mars Bar & Restaurant,mars-bar-and-restaurant-san-francisco,37.773174,-122.40311,37.77323253,-122.4032367,soma,2,$11.00 ,bars,2,89,393,4
2588,THE CLIFT HOTEL,CLIFT Hotel,clift-hotel-san-francisco,37.786974,-122.411136,37.7869318,-122.4111049,downtown,3,$31.00 ,venue,3,97.33,725,3.5
2589,DOJIMA-ANN,Dojima-Ann,dojima-ann-san-francisco,37.786363,-122.408357,37.78625,-122.40834,downtown,2,$11.00 ,japanese,3,92.33,604,3.5
2592,STARBUCKS COFFEE,Starbucks,starbucks-san-francisco-169,37.786804,-122.408135,37.80641668,-122.4146676,downtown,1,$0.00 ,coffeetea,4,95.75,3,2
2593,BELLA TRATTORIA,Bella Trattoria,bella-trattoria-san-francisco,37.781268,-122.460842,37.78128572,-122.4608747,richmond,2,$11.00 ,italian,1,88,1019,4
2596,LA VIE VIETNAMESE REST,La Vie Vietnamese Restaurant,la-vie-vietnamese-restaurant-san-francisco,37.780298,-122.482022,37.78052,-122.48203,richmond,2,$11.00 ,vietnamese,3,87.33,260,3.5
2597,STARBUCKS COFFEE,Starbucks,starbucks-san-francisco-169,37.768743,-122.427549,37.80641668,-122.4146676,castro,1,$0.00 ,coffeetea,4,96.5,3,2
2599,HONG KONG RESTAURANT,Hong Kong BBQ,hong-kong-bbq-san-francisco-2,37.727159,-122.403452,37.7271782,-122.4035622,excelsior,1,$0.00 ,desserts,4,81.25,24,3
2601,LAST DROP TAVERN,Last Drop Tavern,last-drop-tavern-san-francisco,37.789883,-122.408666,37.78999418,-122.4086997,downtown,2,$11.00 ,bars,4,91.5,162,4
2609,PRIDE OF THE MEDITERRANEAN,Pride of the Mediterranean,pride-of-the-mediterranean-san-francisco,37.785718,-122.433262,37.78569192,-122.4332466,pacificheights,2,$11.00 ,european,2,74.5,298,2.5
2610,CAFE LA BOHEME,Cafe La Boheme,cafe-la-boheme-san-francisco,37.752284,-122.418928,37.7523605,-122.4189438,mission,1,$0.00 ,coffeetea,4,92,248,3.5
2615,THAI CHEF 2,Thai Chef,thai-chef-san-francisco,37.760813,-122.435789,37.760792,-122.435785,castro,2,$11.00 ,thai,3,85.33,221,3.5
2619,KEZAR BAR & RESTAURANT,Kezar Bar & Restaurant,kezar-bar-and-restaurant-san-francisco,37.765538,-122.449887,37.76570199,-122.4498107,haight,2,$11.00 ,american,2,80,302,3.5
2620,BAMBINO'S RISTORANTE,Bambino's Ristorante,bambinos-ristorante-san-francisco,37.765174,-122.449884,37.76512,-122.45011,haight,2,$11.00 ,fastfood,3,86,466,3.5
2622,WING HING RESTAURANT,Wing Hing,wing-hing-san-francisco,37.729408,-122.404391,37.72932434,-122.4046631,excelsior,1,$0.00 ,chinese,3,75.33,77,3.5
2627,BURGERMEISTER,Burgermeister,burgermeister-san-francisco,37.768776,-122.429095,37.7686067,-122.4292855,castro,2,$11.00 ,fastfood,3,88.67,416,3.5
2632,MARTHA & BROTHERS COFFEE,Martha & Brothers Coffee,martha-and-brothers-coffee-san-francisco,37.738927,-122.414757,37.73904419,-122.4147644,bernalheights,1,$0.00 ,coffeetea,5,90.8,154,4
2638,SF BAGEL CO.,Katz Bagels,katz-bagels-san-francisco,37.764814,-122.423089,37.76462555,-122.4230804,mission,1,$0.00 ,bakeries,3,91.33,191,3.5
2643,THE CREPEVINE,Crepevine Restaurant,crepevine-restaurant-san-francisco,37.766903,-122.428954,37.7667584,-122.4290376,castro,2,$11.00 ,european,4,91,402,3.5
2645,RANGE,Range Restaurant,range-restaurant-san-francisco,37.759417,-122.421376,37.7594,-122.42167,mission,3,$31.00 ,american,3,92.33,1679,4
2646,THE PHOENIX BAR & RESTAURANT,The Phoenix Bar & Irish Gathering House,the-phoenix-bar-and-irish-gathering-house-san-francisco,37.759823,-122.421346,37.75983047,-122.4211197,mission,2,$11.00 ,bars,3,91,656,4
2648,BALOMPIE CAFE,Balompie Cafe,balompie-cafe-san-francisco,37.761836,-122.418296,37.7618121,-122.4181677,mission,1,$0.00 ,latinamerican,2,90,599,4
2649,WAN KEE RESTAURANT,Wan Kee Restaurant,wan-kee-restaurant-san-francisco-2,37.762527,-122.419475,37.76251,-122.41971,mission,1,$0.00 ,chinese,3,94.33,14,3.5
2652,VILLAGE PIZZERIA,Village Pizzeria,village-pizzeria-san-francisco-5,37.787354,-122.421844,37.787318,-122.421902,pacificheights,2,$11.00 ,fastfood,2,94,258,3.5
